{"type":"FeatureCollection","name":"ma_public_schools","crs":{"type":"name","properties":{"name":"urn:ogc:def:crs:OGC:1.3:CRS84"}},"features":[{"type":"Feature","properties":{"SCHID":"01490040","NAME":"Francis M. Leahy School","TOWN":"LAWRENCE","GRADES":"PK,K,01,02,03,04","TYPE_DESC":"Public Elementary","DIST_NAME":"Lawrence","DIST_CODE":"01490000","lon":-71.16150337144174,"lat":42.714655376726824},"geometry":{"type":"Point","coordinates":[-71.161503,42.714655]}},{"type":"Feature","properties":{"SCHID":"02480305","NAME":"Susan B. Anthony Middle School","TOWN":"REVERE","GRADES":"06,07,08","TYPE_DESC":"Public Middle","DIST_NAME":"Revere","DIST_CODE":"02480000","lon":-71.02088410005048,"lat":42.41979776108584},"geometry":{"type":"Point","coordinates":[-71.020884,42.419798]}},{"type":"Feature","properties":{"SCHID":"02180305","NAME":"Norton Middle School","TOWN":"NORTON","GRADES":"06,07,08","TYPE_DESC":"Public Middle","DIST_NAME":"Norton","DIST_CODE":"02180000","lon":-71.2138097875085,"lat":41.95988400411698},"geometry":{"type":"Point","coordinates":[-71.21381,41.959884]}},{"type":"Feature","properties":{"SCHID":"02720005","NAME":"Shutesbury Elementary School","TOWN":"SHUTESBURY","GRADES":"PK,K,01,02,03,04,05,06","TYPE_DESC":"Public Elementary","DIST_NAME":"Shutesbury","DIST_CODE":"02720000","lon":-72.42987265292874,"lat":42.44854114380244},"geometry":{"type":"Point","coordinates":[-72.429873,42.448541]}},{"type":"Feature","properties":{"SCHID":"06500005","NAME":"Dighton Elementary School","TOWN":"DIGHTON","GRADES":"PK,K,01,02,03,04","TYPE_DESC":"Public Elementary","DIST_NAME":"Dighton-Rehoboth","DIST_CODE":"06500000","lon":-71.11936269741044,"lat":41.835254896726816},"geometry":{"type":"Point","coordinates":[-71.119363,41.835255]}},{"type":"Feature","properties":{"SCHID":"02930008","NAME":"Joseph C Chamberlain School","TOWN":"TAUNTON","GRADES":"PK,K,01,02,03,04","TYPE_DESC":"Public Elementary","DIST_NAME":"Taunton","DIST_CODE":"02930000","lon":-71.13632481434576,"lat":41.91806240610754},"geometry":{"type":"Point","coordinates":[-71.136325,41.918062]}},{"type":"Feature","properties":{"SCHID":"03440045","NAME":"Ambrose Elementary School","TOWN":"WINCHESTER","GRADES":"K,01,02,03,04,05","TYPE_DESC":"Public Elementary","DIST_NAME":"Winchester","DIST_CODE":"03440000","lon":-71.15614734942888,"lat":42.445737402468815},"geometry":{"type":"Point","coordinates":[-71.156147,42.445737]}},{"type":"Feature","properties":{"SCHID":"02310003","NAME":"Bryantville Elementary School","TOWN":"PEMBROKE","GRADES":"K,01,02,03,04,05,06","TYPE_DESC":"Public Elementary","DIST_NAME":"Pembroke","DIST_CODE":"02310000","lon":-70.82373235728154,"lat":42.04439591265122},"geometry":{"type":"Point","coordinates":[-70.823732,42.044396]}},{"type":"Feature","properties":{"SCHID":"02290045","NAME":"West Memorial School","TOWN":"PEABODY","GRADES":"PK,K,01,02,03,04,05","TYPE_DESC":"Public Elementary","DIST_NAME":"Peabody","DIST_CODE":"02290000","lon":-71.013511561032,"lat":42.54842104468672},"geometry":{"type":"Point","coordinates":[-71.013512,42.548421]}},{"type":"Feature","properties":{"SCHID":"06800050","NAME":"Stony Hill School","TOWN":"WILBRAHAM","GRADES":"02,03","TYPE_DESC":"Public Elementary","DIST_NAME":"Hampden-Wilbraham","DIST_CODE":"06800000","lon":-72.45666934754401,"lat":42.12280782604318},"geometry":{"type":"Point","coordinates":[-72.456669,42.122808]}},{"type":"Feature","properties":{"SCHID":"02290015","NAME":"Center School","TOWN":"PEABODY","GRADES":"PK,K,01,02,03,04,05","TYPE_DESC":"Public Elementary","DIST_NAME":"Peabody","DIST_CODE":"02290000","lon":-70.94457040068151,"lat":42.52953747017334},"geometry":{"type":"Point","coordinates":[-70.94457,42.529537]}},{"type":"Feature","properties":{"SCHID":"06740505","NAME":"Turners Fall High School","TOWN":"MONTAGUE","GRADES":"09,10,11,12","TYPE_DESC":"Public Secondary","DIST_NAME":"Gill-Montague","DIST_CODE":"06740000","lon":-72.54290559322156,"lat":42.587401810216605},"geometry":{"type":"Point","coordinates":[-72.542906,42.587402]}},{"type":"Feature","properties":{"SCHID":"02200020","NAME":"John P Oldham School","TOWN":"NORWOOD","GRADES":"01,02,03,04","TYPE_DESC":"Public Elementary","DIST_NAME":"Norwood","DIST_CODE":"02200000","lon":-71.20482852798709,"lat":42.20406966556432},"geometry":{"type":"Point","coordinates":[-71.204829,42.20407]}},{"type":"Feature","properties":{"SCHID":"03230305","NAME":"Howard School","TOWN":"WEST BRIDGEWATER","GRADES":"04,05,06","TYPE_DESC":"Public Elementary","DIST_NAME":"West Bridgewater","DIST_CODE":"03230000","lon":-71.01149723345834,"lat":42.01998544580113},"geometry":{"type":"Point","coordinates":[-71.011497,42.019985]}},{"type":"Feature","properties":{"SCHID":"00160320","NAME":"Wamsutta Middle School","TOWN":"ATTLEBORO","GRADES":"05,06,07,08","TYPE_DESC":"Public Middle","DIST_NAME":"Attleboro","DIST_CODE":"00160000","lon":-71.28069754577956,"lat":41.91328812139472},"geometry":{"type":"Point","coordinates":[-71.280698,41.913288]}},{"type":"Feature","properties":{"SCHID":"01220004","NAME":"Cedar Elementary School","TOWN":"HANOVER","GRADES":"PK,K,01","TYPE_DESC":"Public Elementary","DIST_NAME":"Hanover","DIST_CODE":"01220000","lon":-70.86768672922173,"lat":42.1321022833379},"geometry":{"type":"Point","coordinates":[-70.867687,42.132102]}},{"type":"Feature","properties":{"SCHID":"01000302","NAME":"Cameron Middle School","TOWN":"FRAMINGHAM","GRADES":"06,07,08","TYPE_DESC":"Public Middle","DIST_NAME":"Framingham","DIST_CODE":"01000000","lon":-71.39994375001707,"lat":42.333208486908326},"geometry":{"type":"Point","coordinates":[-71.399944,42.333208]}},{"type":"Feature","properties":{"SCHID":"02810205","NAME":"The Springfield Renaissance School an Expeditionary Learning School","TOWN":"SPRINGFIELD","GRADES":"06,07,08,09,10,11,12","TYPE_DESC":"Public Secondary","DIST_NAME":"Springfield","DIST_CODE":"02810000","lon":-72.57401341941883,"lat":42.13284041922837},"geometry":{"type":"Point","coordinates":[-72.574013,42.13284]}},{"type":"Feature","properties":{"SCHID":"01710010","NAME":"South River School","TOWN":"MARSHFIELD","GRADES":"K,01,02,03,04,05","TYPE_DESC":"Public Elementary","DIST_NAME":"Marshfield","DIST_CODE":"01710000","lon":-70.7157426157346,"lat":42.09494178772028},"geometry":{"type":"Point","coordinates":[-70.715743,42.094942]}},{"type":"Feature","properties":{"SCHID":"08780605","NAME":"Tri-County Regional Vocational Technical","TOWN":"FRANKLIN","GRADES":"09,10,11,12","TYPE_DESC":"Public Voc/Tech/Ag Reg'l HS","DIST_NAME":"Tri County RVT","DIST_CODE":"08780000","lon":-71.42149007609385,"lat":42.09500920917179},"geometry":{"type":"Point","coordinates":[-71.42149,42.095009]}},{"type":"Feature","properties":{"SCHID":"01490020","NAME":"James F Hennessey School","TOWN":"LAWRENCE","GRADES":"PK,K,01,02","TYPE_DESC":"Public Elementary","DIST_NAME":"Lawrence","DIST_CODE":"01490000","lon":-71.17716453351096,"lat":42.69704057524365},"geometry":{"type":"Point","coordinates":[-71.177165,42.697041]}},{"type":"Feature","properties":{"SCHID":"02010415","NAME":"Roosevelt Middle School","TOWN":"NEW BEDFORD","GRADES":"06,07,08","TYPE_DESC":"Public Middle","DIST_NAME":"New Bedford","DIST_CODE":"02010000","lon":-70.91060668100249,"lat":41.61029055436289},"geometry":{"type":"Point","coordinates":[-70.910607,41.610291]}},{"type":"Feature","properties":{"SCHID":"01140010","NAME":"Federal Street School","TOWN":"GREENFIELD","GRADES":"K,01,02,03,04","TYPE_DESC":"Public Elementary","DIST_NAME":"Greenfield","DIST_CODE":"01140000","lon":-72.59770286365142,"lat":42.59119432649857},"geometry":{"type":"Point","coordinates":[-72.597703,42.591194]}},{"type":"Feature","properties":{"SCHID":"02290010","NAME":"Thomas Carroll School","TOWN":"PEABODY","GRADES":"PK,K,01,02,03,04,05","TYPE_DESC":"Public Elementary","DIST_NAME":"Peabody","DIST_CODE":"02290000","lon":-70.91763803161842,"lat":42.532268688212355},"geometry":{"type":"Point","coordinates":[-70.917638,42.532269]}},{"type":"Feature","properties":{"SCHID":"04830305","NAME":"Rising Tide Charter Public School","TOWN":"PLYMOUTH","GRADES":"05,06,07,08,09,10,11,12","TYPE_DESC":"Charter","DIST_NAME":"Rising Tide Charter","DIST_CODE":"04830000","lon":-70.69671516435248,"lat":41.957266609818014},"geometry":{"type":"Point","coordinates":[-70.696715,41.957267]}},{"type":"Feature","properties":{"SCHID":"03260025","NAME":"Col. John Robinson School","TOWN":"WESTFORD","GRADES":"PK,K,01,02","TYPE_DESC":"Public Elementary","DIST_NAME":"Westford","DIST_CODE":"03260000","lon":-71.46407697454619,"lat":42.56989641590221},"geometry":{"type":"Point","coordinates":[-71.464077,42.569896]}},{"type":"Feature","properties":{"SCHID":"00570505","NAME":"Chelsea High School","TOWN":"CHELSEA","GRADES":"09,10,11,12","TYPE_DESC":"Public Secondary","DIST_NAME":"Chelsea","DIST_CODE":"00570000","lon":-71.04005414376479,"lat":42.40007255782688},"geometry":{"type":"Point","coordinates":[-71.040054,42.400073]}},{"type":"Feature","properties":{"SCHID":"01620505","NAME":"Lunenburg High School","TOWN":"LUNENBURG","GRADES":"09,10,11,12","TYPE_DESC":"Public Secondary","DIST_NAME":"Lunenburg","DIST_CODE":"01620000","lon":-71.72041762407171,"lat":42.59916530336063},"geometry":{"type":"Point","coordinates":[-71.720418,42.599165]}},{"type":"Feature","properties":{"SCHID":"02010115","NAME":"John Avery Parker School","TOWN":"NEW BEDFORD","GRADES":"PK","TYPE_DESC":"Public Elementary","DIST_NAME":"New Bedford","DIST_CODE":"02010000","lon":-70.93210802773731,"lat":41.644439384539325},"geometry":{"type":"Point","coordinates":[-70.932108,41.644439]}},{"type":"Feature","properties":{"SCHID":"01310410","NAME":"Hingham Middle School","TOWN":"HINGHAM","GRADES":"06,07,08","TYPE_DESC":"Public Middle","DIST_NAME":"Hingham","DIST_CODE":"01310000","lon":-70.88794938982146,"lat":42.18086406331031},"geometry":{"type":"Point","coordinates":[-70.887949,42.180864]}},{"type":"Feature","properties":{"SCHID":"02390011","NAME":"Federal Furnace School","TOWN":"PLYMOUTH","GRADES":"K,01,02,03,04,05","TYPE_DESC":"Public Elementary","DIST_NAME":"Plymouth","DIST_CODE":"02390000","lon":-70.71080442487234,"lat":41.8923447703754},"geometry":{"type":"Point","coordinates":[-70.710804,41.892345]}},{"type":"Feature","properties":{"SCHID":"00440078","NAME":"Oscar F Raymond School","TOWN":"BROCKTON","GRADES":"K,01,02,03,04,05","TYPE_DESC":"Public Elementary","DIST_NAME":"Brockton","DIST_CODE":"00440000","lon":-71.03180812658262,"lat":42.10436561185701},"geometry":{"type":"Point","coordinates":[-71.031808,42.104366]}},{"type":"Feature","properties":{"SCHID":"02170505","NAME":"North Reading High School","TOWN":"NORTH READING","GRADES":"09,10,11,12","TYPE_DESC":"Public Secondary","DIST_NAME":"North Reading","DIST_CODE":"02170000","lon":-71.08293948916162,"lat":42.57480651039414},"geometry":{"type":"Point","coordinates":[-71.082939,42.574807]}},{"type":"Feature","properties":{"SCHID":"00300010","NAME":"Centerville Elementary School","TOWN":"BEVERLY","GRADES":"K,01,02,03,04","TYPE_DESC":"Public Elementary","DIST_NAME":"Beverly","DIST_CODE":"00300000","lon":-70.84188138151947,"lat":42.57891805728049},"geometry":{"type":"Point","coordinates":[-70.841881,42.578918]}},{"type":"Feature","properties":{"SCHID":"01420015","NAME":"Lillian M. Jacobs School","TOWN":"HULL","GRADES":"PK,K,01,02,03,04,05,06,07","TYPE_DESC":"Public Elementary","DIST_NAME":"Hull","DIST_CODE":"01420000","lon":-70.90887355866558,"lat":42.30678811710658},"geometry":{"type":"Point","coordinates":[-70.908874,42.306788]}},{"type":"Feature","properties":{"SCHID":"02360100","NAME":"Williams School","TOWN":"PITTSFIELD","GRADES":"PK,K,01,02,03,04,05","TYPE_DESC":"Public Elementary","DIST_NAME":"Pittsfield","DIST_CODE":"02360000","lon":-73.20870005300102,"lat":42.43445702856578},"geometry":{"type":"Point","coordinates":[-73.2087,42.434457]}},{"type":"Feature","properties":{"SCHID":"01890505","NAME":"Milton High School","TOWN":"MILTON","GRADES":"09,10,11,12","TYPE_DESC":"Public Secondary","DIST_NAME":"Milton","DIST_CODE":"01890000","lon":-71.08753021657235,"lat":42.251366840530025},"geometry":{"type":"Point","coordinates":[-71.08753,42.251367]}},{"type":"Feature","properties":{"SCHID":"01500505","NAME":"Lee Middle/High School","TOWN":"LEE","GRADES":"07,08,09,10,11,12","TYPE_DESC":"Public Secondary","DIST_NAME":"Lee","DIST_CODE":"01500000","lon":-73.23910400590393,"lat":42.306749203182086},"geometry":{"type":"Point","coordinates":[-73.239104,42.306749]}},{"type":"Feature","properties":{"SCHID":"00870010","NAME":"Mapleshade School","TOWN":"EAST LONGMEADOW","GRADES":"03,04,05","TYPE_DESC":"Public Elementary","DIST_NAME":"East Longmeadow","DIST_CODE":"00870000","lon":-72.50801341091685,"lat":42.07131981086548},"geometry":{"type":"Point","coordinates":[-72.508013,42.07132]}},{"type":"Feature","properties":{"SCHID":"02340005","NAME":"Petersham Center School","TOWN":"PETERSHAM","GRADES":"K,01,02,03,04,05,06","TYPE_DESC":"Public Elementary","DIST_NAME":"Petersham","DIST_CODE":"02340000","lon":-72.19175575477742,"lat":42.4845591352048},"geometry":{"type":"Point","coordinates":[-72.191756,42.484559]}},{"type":"Feature","properties":{"SCHID":"04450105","NAME":"Abby Kelley Foster Charter Public School","TOWN":"WORCESTER","GRADES":"K,01,02,03,04,05,06,07,08,09,10,11,12","TYPE_DESC":"Charter","DIST_NAME":"Abby Kelley Foster Charter","DIST_CODE":"04450000","lon":-71.80164017657134,"lat":42.30633022543237},"geometry":{"type":"Point","coordinates":[-71.80164,42.30633]}},{"type":"Feature","properties":{"SCHID":"06580030","NAME":"Heritage School","TOWN":"CHARLTON","GRADES":"02,03,04","TYPE_DESC":"Public Elementary","DIST_NAME":"Dudley-Charlton","DIST_CODE":"06580000","lon":-71.93933719817682,"lat":42.1300992131104},"geometry":{"type":"Point","coordinates":[-71.939337,42.130099]}},{"type":"Feature","properties":{"SCHID":"00670005","NAME":"Alcott School","TOWN":"CONCORD","GRADES":"PK,K,01,02,03,04,05","TYPE_DESC":"Public Elementary","DIST_NAME":"Concord","DIST_CODE":"00670000","lon":-71.34588894861649,"lat":42.453283383076986},"geometry":{"type":"Point","coordinates":[-71.345889,42.453283]}},{"type":"Feature","properties":{"SCHID":"00730030","NAME":"Oakdale School","TOWN":"DEDHAM","GRADES":"01,02,03,04,05","TYPE_DESC":"Public Elementary","DIST_NAME":"Dedham","DIST_CODE":"00730000","lon":-71.15420604522357,"lat":42.23862402552615},"geometry":{"type":"Point","coordinates":[-71.154206,42.238624]}},{"type":"Feature","properties":{"SCHID":"02650505","NAME":"Seekonk High School","TOWN":"SEEKONK","GRADES":"09,10,11,12","TYPE_DESC":"Public Secondary","DIST_NAME":"Seekonk","DIST_CODE":"02650000","lon":-71.33284413555086,"lat":41.83550016098232},"geometry":{"type":"Point","coordinates":[-71.332844,41.8355]}},{"type":"Feature","properties":{"SCHID":"00870015","NAME":"Mountain View School","TOWN":"EAST LONGMEADOW","GRADES":"03,04,05","TYPE_DESC":"Public Elementary","DIST_NAME":"East Longmeadow","DIST_CODE":"00870000","lon":-72.4833608477358,"lat":42.05178864643155},"geometry":{"type":"Point","coordinates":[-72.483361,42.051789]}},{"type":"Feature","properties":{"SCHID":"02650007","NAME":"George R Martin School","TOWN":"SEEKONK","GRADES":"K,01,02,03,04,05","TYPE_DESC":"Public Elementary","DIST_NAME":"Seekonk","DIST_CODE":"02650000","lon":-71.316980634488,"lat":41.79734803691114},"geometry":{"type":"Point","coordinates":[-71.316981,41.797348]}},{"type":"Feature","properties":{"SCHID":"03480423","NAME":"Sullivan Middle School","TOWN":"WORCESTER","GRADES":"06,07,08","TYPE_DESC":"Public Middle","DIST_NAME":"Worcester","DIST_CODE":"03480000","lon":-71.86283336185208,"lat":42.244167360444926},"geometry":{"type":"Point","coordinates":[-71.862833,42.244167]}},{"type":"Feature","properties":{"SCHID":"02360505","NAME":"Pittsfield High School","TOWN":"PITTSFIELD","GRADES":"09,10,11,12","TYPE_DESC":"Public Secondary","DIST_NAME":"Pittsfield","DIST_CODE":"02360000","lon":-73.24773556880069,"lat":42.446579138829755},"geometry":{"type":"Point","coordinates":[-73.247736,42.446579]}},{"type":"Feature","properties":{"SCHID":"01520505","NAME":"Lenox Memorial High School","TOWN":"LENOX","GRADES":"06,07,08,09,10,11,12","TYPE_DESC":"Public Secondary","DIST_NAME":"Lenox","DIST_CODE":"01520000","lon":-73.2590438832664,"lat":42.35168010768208},"geometry":{"type":"Point","coordinates":[-73.259044,42.35168]}},{"type":"Feature","properties":{"SCHID":"02100020","NAME":"Jackson Street School","TOWN":"NORTHAMPTON","GRADES":"K,01,02,03,04,05","TYPE_DESC":"Public Elementary","DIST_NAME":"Northampton","DIST_CODE":"02100000","lon":-72.64502563312651,"lat":42.334598984902655},"geometry":{"type":"Point","coordinates":[-72.645026,42.334599]}},{"type":"Feature","properties":{"SCHID":"02010050","NAME":"John B Devalles School","TOWN":"NEW BEDFORD","GRADES":"K,01,02,03,04,05","TYPE_DESC":"Public Elementary","DIST_NAME":"New Bedford","DIST_CODE":"02010000","lon":-70.92845756560817,"lat":41.618391402591705},"geometry":{"type":"Point","coordinates":[-70.928458,41.618391]}},{"type":"Feature","properties":{"SCHID":"00970505","NAME":"Fitchburg High School","TOWN":"FITCHBURG","GRADES":"09,10,11,12","TYPE_DESC":"Public Secondary","DIST_NAME":"Fitchburg","DIST_CODE":"00970000","lon":-71.80752546898314,"lat":42.62156092398013},"geometry":{"type":"Point","coordinates":[-71.807525,42.621561]}},{"type":"Feature","properties":{"SCHID":"03000005","NAME":"Truro Central School","TOWN":"TRURO","GRADES":"PK,K,01,02,03,04,05,06","TYPE_DESC":"Public Elementary","DIST_NAME":"Truro","DIST_CODE":"03000000","lon":-70.07102897776616,"lat":42.01817229015857},"geometry":{"type":"Point","coordinates":[-70.071029,42.018172]}},{"type":"Feature","properties":{"SCHID":"01740505","NAME":"Maynard High School","TOWN":"MAYNARD","GRADES":"09,10,11,12","TYPE_DESC":"Public Secondary","DIST_NAME":"Maynard","DIST_CODE":"01740000","lon":-71.45096626883297,"lat":42.42223168787225},"geometry":{"type":"Point","coordinates":[-71.450966,42.422232]}},{"type":"Feature","properties":{"SCHID":"01280100","NAME":"Consentino Middle School","TOWN":"HAVERHILL","GRADES":"05,06,07,08","TYPE_DESC":"Public Middle","DIST_NAME":"Haverhill","DIST_CODE":"01280000","lon":-71.1023854432812,"lat":42.76964338674305},"geometry":{"type":"Point","coordinates":[-71.102385,42.769643]}},{"type":"Feature","properties":{"SCHID":"04460550","NAME":"Foxborough Regional Charter School","TOWN":"FOXBOROUGH","GRADES":"K,01,02,03,04,05,06,07,08,09,10,11,12","TYPE_DESC":"Charter","DIST_NAME":"Foxborough Regional Charter","DIST_CODE":"04460000","lon":-71.2447814663043,"lat":42.05686892831329},"geometry":{"type":"Point","coordinates":[-71.244781,42.056869]}},{"type":"Feature","properties":{"SCHID":"06580310","NAME":"Charlton Middle School","TOWN":"CHARLTON","GRADES":"05,06,07,08","TYPE_DESC":"Public Middle","DIST_NAME":"Dudley-Charlton","DIST_CODE":"06580000","lon":-71.93941775285539,"lat":42.12845169951065},"geometry":{"type":"Point","coordinates":[-71.939418,42.128452]}},{"type":"Feature","properties":{"SCHID":"00610505","NAME":"Chicopee High School","TOWN":"CHICOPEE","GRADES":"09,10,11,12","TYPE_DESC":"Public Secondary","DIST_NAME":"Chicopee","DIST_CODE":"00610000","lon":-72.58503270834652,"lat":42.14859438589415},"geometry":{"type":"Point","coordinates":[-72.585033,42.148594]}},{"type":"Feature","properties":{"SCHID":"01590505","NAME":"Longmeadow High School","TOWN":"LONGMEADOW","GRADES":"09,10,11,12","TYPE_DESC":"Public Secondary","DIST_NAME":"Longmeadow","DIST_CODE":"01590000","lon":-72.55965772702909,"lat":42.05520123929024},"geometry":{"type":"Point","coordinates":[-72.559658,42.055201]}},{"type":"Feature","properties":{"SCHID":"02920020","NAME":"Joseph G Luther School","TOWN":"SWANSEA","GRADES":"03,04,05","TYPE_DESC":"Public Elementary","DIST_NAME":"Swansea","DIST_CODE":"02920000","lon":-71.22270588576036,"lat":41.74255663040073},"geometry":{"type":"Point","coordinates":[-71.222706,41.742557]}},{"type":"Feature","properties":{"SCHID":"01140005","NAME":"The Academy of Early Learning at North Parish","TOWN":"GREENFIELD","GRADES":"PK","TYPE_DESC":"Public Elementary","DIST_NAME":"Greenfield","DIST_CODE":"01140000","lon":-72.61111574506326,"lat":42.605570618248},"geometry":{"type":"Point","coordinates":[-72.611116,42.605571]}},{"type":"Feature","properties":{"SCHID":"04580505","NAME":"Lowell Middlesex Academy Charter School","TOWN":"LOWELL","GRADES":"09,10,11,12","TYPE_DESC":"Charter","DIST_NAME":"Lowell Middlesex Academy Charter","DIST_CODE":"04580000","lon":-71.30970244772385,"lat":42.64520825698871},"geometry":{"type":"Point","coordinates":[-71.309702,42.645208]}},{"type":"Feature","properties":{"SCHID":"04920005","NAME":"Martin Luther King, Jr. Charter School of Excellence","TOWN":"SPRINGFIELD","GRADES":"K,01,02,03,04,05","TYPE_DESC":"Charter","DIST_NAME":"Martin Luther King Jr. Charter School of Excellence","DIST_CODE":"04920000","lon":-72.53614018882759,"lat":42.08395422272896},"geometry":{"type":"Point","coordinates":[-72.53614,42.083954]}},{"type":"Feature","properties":{"SCHID":"01050005","NAME":"Perley Elementary School","TOWN":"GEORGETOWN","GRADES":"PK","TYPE_DESC":"Public Elementary","DIST_NAME":"Georgetown","DIST_CODE":"01050000","lon":-70.9885949748706,"lat":42.726247128686765},"geometry":{"type":"Point","coordinates":[-70.988595,42.726247]}},{"type":"Feature","properties":{"SCHID":"02920505","NAME":"Joseph Case High School","TOWN":"SWANSEA","GRADES":"09,10,11,12","TYPE_DESC":"Public Secondary","DIST_NAME":"Swansea","DIST_CODE":"02920000","lon":-71.20123473057116,"lat":41.754151392922694},"geometry":{"type":"Point","coordinates":[-71.201235,41.754151]}},{"type":"Feature","properties":{"SCHID":"02920015","NAME":"Gardner School","TOWN":"SWANSEA","GRADES":"K,01,02","TYPE_DESC":"Public Elementary","DIST_NAME":"Swansea","DIST_CODE":"02920000","lon":-71.20285127267464,"lat":41.72482439476624},"geometry":{"type":"Point","coordinates":[-71.202851,41.724824]}},{"type":"Feature","properties":{"SCHID":"00930038","NAME":"Lafayette School","TOWN":"EVERETT","GRADES":"K,01,02,03,04,05,06,07,08","TYPE_DESC":"Public Elementary","DIST_NAME":"Everett","DIST_CODE":"00930000","lon":-71.05100578315592,"lat":42.42196136262031},"geometry":{"type":"Point","coordinates":[-71.051006,42.421961]}},{"type":"Feature","properties":{"SCHID":"03070002","NAME":"Daniel Feeney Preschool Center","TOWN":"WALPOLE","GRADES":"PK","TYPE_DESC":"Public Elementary","DIST_NAME":"Walpole","DIST_CODE":"03070000","lon":-71.26789993662614,"lat":42.153814282597374},"geometry":{"type":"Point","coordinates":[-71.2679,42.153814]}},{"type":"Feature","properties":{"SCHID":"06740310","NAME":"Great Falls Middle School","TOWN":"MONTAGUE","GRADES":"06,07,08","TYPE_DESC":"Public Middle","DIST_NAME":"Gill-Montague","DIST_CODE":"06740000","lon":-72.54290559322156,"lat":42.587401810216605},"geometry":{"type":"Point","coordinates":[-72.542906,42.587402]}},{"type":"Feature","properties":{"SCHID":"03090020","NAME":"Stanley M Koziol Elementary School","TOWN":"WARE","GRADES":"PK,K,01,02,03","TYPE_DESC":"Public Elementary","DIST_NAME":"Ware","DIST_CODE":"03090000","lon":-72.26220487824712,"lat":42.25344784348138},"geometry":{"type":"Point","coordinates":[-72.262205,42.253448]}},{"type":"Feature","properties":{"SCHID":"06220010","NAME":"Millville Elementary School","TOWN":"MILLVILLE","GRADES":"K,01,02,03","TYPE_DESC":"Public Elementary","DIST_NAME":"Blackstone-Millville","DIST_CODE":"06220000","lon":-71.57806983867053,"lat":42.03248514771771},"geometry":{"type":"Point","coordinates":[-71.57807,42.032485]}},{"type":"Feature","properties":{"SCHID":"04560050","NAME":"Lowell Community Charter Public School","TOWN":"LOWELL","GRADES":"PK,K,01,02,03,04,05,06,07,08","TYPE_DESC":"Charter","DIST_NAME":"Lowell Community Charter","DIST_CODE":"04560000","lon":-71.31212357689252,"lat":42.641341422967706},"geometry":{"type":"Point","coordinates":[-71.312124,42.641341]}},{"type":"Feature","properties":{"SCHID":"02390005","NAME":"Cold Spring School","TOWN":"PLYMOUTH","GRADES":"K,01,02,03,04,05","TYPE_DESC":"Public Elementary","DIST_NAME":"Plymouth","DIST_CODE":"02390000","lon":-70.67792400710131,"lat":41.96265767990706},"geometry":{"type":"Point","coordinates":[-70.677924,41.962658]}},{"type":"Feature","properties":{"SCHID":"03180005","NAME":"Wellfleet Elementary School","TOWN":"WELLFLEET","GRADES":"K,01,02,03,04,05","TYPE_DESC":"Public Elementary","DIST_NAME":"Wellfleet","DIST_CODE":"03180000","lon":-70.02252079202157,"lat":41.941457302860165},"geometry":{"type":"Point","coordinates":[-70.022521,41.941457]}},{"type":"Feature","properties":{"SCHID":"00080050","NAME":"Wildwood Elementary School","TOWN":"AMHERST","GRADES":"K,01,02,03,04,05,06","TYPE_DESC":"Public Elementary","DIST_NAME":"Amherst","DIST_CODE":"00080000","lon":-72.51310011723784,"lat":42.38730523544729},"geometry":{"type":"Point","coordinates":[-72.5131,42.387305]}},{"type":"Feature","properties":{"SCHID":"06980020","NAME":"Essex Elementary School","TOWN":"ESSEX","GRADES":"K,01,02,03,04,05","TYPE_DESC":"Public Elementary","DIST_NAME":"Manchester Essex","DIST_CODE":"06980000","lon":-70.78997147845669,"lat":42.63182329946257},"geometry":{"type":"Point","coordinates":[-70.789971,42.631823]}},{"type":"Feature","properties":{"SCHID":"00870305","NAME":"Birchland Park School","TOWN":"EAST LONGMEADOW","GRADES":"06,07,08","TYPE_DESC":"Public Middle","DIST_NAME":"East Longmeadow","DIST_CODE":"00870000","lon":-72.50690129458997,"lat":42.072791296362354},"geometry":{"type":"Point","coordinates":[-72.506901,42.072791]}},{"type":"Feature","properties":{"SCHID":"01500025","NAME":"Lee Elementary School","TOWN":"LEE","GRADES":"PK,K,01,02,03,04,05,06","TYPE_DESC":"Public Elementary","DIST_NAME":"Lee","DIST_CODE":"01500000","lon":-73.2364489465224,"lat":42.306932809901184},"geometry":{"type":"Point","coordinates":[-73.236449,42.306933]}},{"type":"Feature","properties":{"SCHID":"04530005","NAME":"Holyoke Community Charter School","TOWN":"HOLYOKE","GRADES":"K,01,02,03,04,05,06,07,08","TYPE_DESC":"Charter","DIST_NAME":"Holyoke Community Charter","DIST_CODE":"04530000","lon":-72.62854582676837,"lat":42.18576879977969},"geometry":{"type":"Point","coordinates":[-72.628546,42.185769]}},{"type":"Feature","properties":{"SCHID":"01270005","NAME":"Hatfield Elementary School","TOWN":"HATFIELD","GRADES":"PK,K,01,02,03,04,05","TYPE_DESC":"Public Elementary","DIST_NAME":"Hatfield","DIST_CODE":"01270000","lon":-72.60002507771392,"lat":42.36986990385941},"geometry":{"type":"Point","coordinates":[-72.600025,42.36987]}},{"type":"Feature","properties":{"SCHID":"02110010","NAME":"Franklin School","TOWN":"NORTH ANDOVER","GRADES":"01,02,03,04,05","TYPE_DESC":"Public Elementary","DIST_NAME":"North Andover","DIST_CODE":"02110000","lon":-71.11948498215511,"lat":42.676497891876},"geometry":{"type":"Point","coordinates":[-71.119485,42.676498]}},{"type":"Feature","properties":{"SCHID":"02360510","NAME":"Taconic High School","TOWN":"PITTSFIELD","GRADES":"09,10,11,12","TYPE_DESC":"Public Secondary","DIST_NAME":"Pittsfield","DIST_CODE":"02360000","lon":-73.27381091281242,"lat":42.45985747761245},"geometry":{"type":"Point","coordinates":[-73.273811,42.459857]}},{"type":"Feature","properties":{"SCHID":"02360105","NAME":"Silvio O Conte Community School","TOWN":"PITTSFIELD","GRADES":"PK,K,01,02,03,04,05","TYPE_DESC":"Public Elementary","DIST_NAME":"Pittsfield","DIST_CODE":"02360000","lon":-73.2684345511786,"lat":42.45566077749157},"geometry":{"type":"Point","coordinates":[-73.268435,42.455661]}},{"type":"Feature","properties":{"SCHID":"06800310","NAME":"Wilbraham Middle School","TOWN":"WILBRAHAM","GRADES":"06,07,08","TYPE_DESC":"Public Middle","DIST_NAME":"Hampden-Wilbraham","DIST_CODE":"06800000","lon":-72.4578108290042,"lat":42.13335243867233},"geometry":{"type":"Point","coordinates":[-72.457811,42.133352]}},{"type":"Feature","properties":{"SCHID":"00050020","NAME":"Benjamin J Phelps School","TOWN":"AGAWAM","GRADES":"K,01,02,03,04","TYPE_DESC":"Public Elementary","DIST_NAME":"Agawam","DIST_CODE":"00050000","lon":-72.61318212708973,"lat":42.07044864326989},"geometry":{"type":"Point","coordinates":[-72.613182,42.070449]}},{"type":"Feature","properties":{"SCHID":"02460305","NAME":"Arthur W Coolidge Middle School","TOWN":"READING","GRADES":"06,07,08","TYPE_DESC":"Public Middle","DIST_NAME":"Reading","DIST_CODE":"02460000","lon":-71.10991140238383,"lat":42.53824276389845},"geometry":{"type":"Point","coordinates":[-71.109911,42.538243]}},{"type":"Feature","properties":{"SCHID":"01600330","NAME":"Henry J Robinson Middle School","TOWN":"LOWELL","GRADES":"05,06,07,08","TYPE_DESC":"Public Middle","DIST_NAME":"Lowell","DIST_CODE":"01600000","lon":-71.30199799783152,"lat":42.65948274151879},"geometry":{"type":"Point","coordinates":[-71.301998,42.659483]}},{"type":"Feature","properties":{"SCHID":"01530005","NAME":"Lincoln School","TOWN":"LEOMINSTER","GRADES":"PK","TYPE_DESC":"Public Elementary","DIST_NAME":"Leominster","DIST_CODE":"01530000","lon":-71.76878254568884,"lat":42.494234899594446},"geometry":{"type":"Point","coordinates":[-71.768783,42.494235]}},{"type":"Feature","properties":{"SCHID":"06350505","NAME":"Wahconah Regional High School","TOWN":"DALTON","GRADES":"09,10,11,12","TYPE_DESC":"Public Secondary","DIST_NAME":"Central Berkshire","DIST_CODE":"06350000","lon":-73.13912585998452,"lat":42.470750610527084},"geometry":{"type":"Point","coordinates":[-73.139126,42.470751]}},{"type":"Feature","properties":{"SCHID":"03500003","NAME":"Delaney School","TOWN":"WRENTHAM","GRADES":"PK,K,01,02,03","TYPE_DESC":"Public Elementary","DIST_NAME":"Wrentham","DIST_CODE":"03500000","lon":-71.32705850595256,"lat":42.06086389464429},"geometry":{"type":"Point","coordinates":[-71.327059,42.060864]}},{"type":"Feature","properties":{"SCHID":"01420505","NAME":"Hull High School","TOWN":"HULL","GRADES":"08,09,10,11,12","TYPE_DESC":"Public Secondary","DIST_NAME":"Hull","DIST_CODE":"01420000","lon":-70.92030958012066,"lat":42.30419569560681},"geometry":{"type":"Point","coordinates":[-70.92031,42.304196]}},{"type":"Feature","properties":{"SCHID":"02010095","NAME":"Abraham Lincoln School","TOWN":"NEW BEDFORD","GRADES":"K,01,02,03,04,05","TYPE_DESC":"Public Elementary","DIST_NAME":"New Bedford","DIST_CODE":"02010000","lon":-70.93329171904554,"lat":41.669073276400624},"geometry":{"type":"Point","coordinates":[-70.933292,41.669073]}},{"type":"Feature","properties":{"SCHID":"07800315","NAME":"Hanson Middle School","TOWN":"HANSON","GRADES":"05,06,07,08","TYPE_DESC":"Public Middle","DIST_NAME":"Whitman-Hanson","DIST_CODE":"07800000","lon":-70.87389797292096,"lat":42.07676638369747},"geometry":{"type":"Point","coordinates":[-70.873898,42.076766]}},{"type":"Feature","properties":{"SCHID":"03250505","NAME":"Westfield High School","TOWN":"WESTFIELD","GRADES":"09,10,11,12","TYPE_DESC":"Public Secondary","DIST_NAME":"Westfield","DIST_CODE":"03250000","lon":-72.75377425797758,"lat":42.14722695963986},"geometry":{"type":"Point","coordinates":[-72.753774,42.147227]}},{"type":"Feature","properties":{"SCHID":"02010135","NAME":"William H Taylor School","TOWN":"NEW BEDFORD","GRADES":"PK,K,01,02,03,04,05","TYPE_DESC":"Public Elementary","DIST_NAME":"New Bedford","DIST_CODE":"02010000","lon":-70.90545424238758,"lat":41.59965404538464},"geometry":{"type":"Point","coordinates":[-70.905454,41.599654]}},{"type":"Feature","properties":{"SCHID":"01590005","NAME":"Blueberry Hill School","TOWN":"LONGMEADOW","GRADES":"K,01,02,03,04,05","TYPE_DESC":"Public Elementary","DIST_NAME":"Longmeadow","DIST_CODE":"01590000","lon":-72.55940548390006,"lat":42.05923242011576},"geometry":{"type":"Point","coordinates":[-72.559405,42.059232]}},{"type":"Feature","properties":{"SCHID":"06100505","NAME":"Oakmont Regional High School","TOWN":"ASHBURNHAM","GRADES":"09,10,11,12","TYPE_DESC":"Public Secondary","DIST_NAME":"Ashburnham-Westminster","DIST_CODE":"06100000","lon":-71.92264055460045,"lat":42.60426415486181},"geometry":{"type":"Point","coordinates":[-71.922641,42.604264]}},{"type":"Feature","properties":{"SCHID":"00090003","NAME":"Bancroft Elementary School","TOWN":"ANDOVER","GRADES":"K,01,02,03,04,05","TYPE_DESC":"Public Elementary","DIST_NAME":"Andover","DIST_CODE":"00090000","lon":-71.1261976238477,"lat":42.637958242056555},"geometry":{"type":"Point","coordinates":[-71.126198,42.637958]}},{"type":"Feature","properties":{"SCHID":"00860505","NAME":"Easthampton High School","TOWN":"EASTHAMPTON","GRADES":"09,10,11,12","TYPE_DESC":"Public Secondary","DIST_NAME":"Easthampton","DIST_CODE":"00860000","lon":-72.67137533225505,"lat":42.26052287945092},"geometry":{"type":"Point","coordinates":[-72.671375,42.260523]}},{"type":"Feature","properties":{"SCHID":"03360003","NAME":"Weymouth Early Childhood Center","TOWN":"WEYMOUTH","GRADES":"PK","TYPE_DESC":"Public Elementary","DIST_NAME":"Weymouth","DIST_CODE":"03360000","lon":-70.93987892496166,"lat":42.220890764270145},"geometry":{"type":"Point","coordinates":[-70.939879,42.220891]}},{"type":"Feature","properties":{"SCHID":"01070305","NAME":"Ralph B O'Maley Middle School","TOWN":"GLOUCESTER","GRADES":"06,07,08","TYPE_DESC":"Public Middle","DIST_NAME":"Gloucester","DIST_CODE":"01070000","lon":-70.67265487824116,"lat":42.629739107543124},"geometry":{"type":"Point","coordinates":[-70.672655,42.629739]}},{"type":"Feature","properties":{"SCHID":"02620305","NAME":"Saugus Middle School","TOWN":"SAUGUS","GRADES":"06,07,08","TYPE_DESC":"Public Middle","DIST_NAME":"Saugus","DIST_CODE":"02620000","lon":-71.02388948877511,"lat":42.46291221356618},"geometry":{"type":"Point","coordinates":[-71.023889,42.462912]}},{"type":"Feature","properties":{"SCHID":"02430060","NAME":"Merrymount School","TOWN":"QUINCY","GRADES":"K,01,02,03,04,05","TYPE_DESC":"Public Elementary","DIST_NAME":"Quincy","DIST_CODE":"02430000","lon":-70.99311263652301,"lat":42.265025154557904},"geometry":{"type":"Point","coordinates":[-70.993113,42.265025]}},{"type":"Feature","properties":{"SCHID":"00070515","NAME":"Amesbury Innovation High School","TOWN":"AMESBURY","GRADES":"09,10,11,12","TYPE_DESC":"Public Secondary","DIST_NAME":"Amesbury","DIST_CODE":"00070000","lon":-70.93466603911612,"lat":42.856479570778305},"geometry":{"type":"Point","coordinates":[-70.934666,42.85648]}},{"type":"Feature","properties":{"SCHID":"01140305","NAME":"Greenfield Middle School","TOWN":"GREENFIELD","GRADES":"05,06,07","TYPE_DESC":"Public Middle","DIST_NAME":"Greenfield","DIST_CODE":"01140000","lon":-72.59633779051997,"lat":42.595678416227734},"geometry":{"type":"Point","coordinates":[-72.596338,42.595678]}},{"type":"Feature","properties":{"SCHID":"01280080","NAME":"Walnut Square School","TOWN":"HAVERHILL","GRADES":"K,01,02,03","TYPE_DESC":"Public Elementary","DIST_NAME":"Haverhill","DIST_CODE":"01280000","lon":-71.08348272965556,"lat":42.793703168153364},"geometry":{"type":"Point","coordinates":[-71.083483,42.793703]}},{"type":"Feature","properties":{"SCHID":"02040005","NAME":"Francis T Bresnahan Elementary School","TOWN":"NEWBURYPORT","GRADES":"PK,K,01,02,03","TYPE_DESC":"Public Elementary","DIST_NAME":"Newburyport","DIST_CODE":"02040000","lon":-70.89701134849322,"lat":42.81941338215596},"geometry":{"type":"Point","coordinates":[-70.897011,42.819413]}},{"type":"Feature","properties":{"SCHID":"00400005","NAME":"Hollis School","TOWN":"BRAINTREE","GRADES":"K,01,02,03,04","TYPE_DESC":"Public Elementary","DIST_NAME":"Braintree","DIST_CODE":"00400000","lon":-71.00255255121563,"lat":42.215764078156155},"geometry":{"type":"Point","coordinates":[-71.002553,42.215764]}},{"type":"Feature","properties":{"SCHID":"01170505","NAME":"Hopkins Academy","TOWN":"HADLEY","GRADES":"07,08,09,10,11,12","TYPE_DESC":"Public Secondary","DIST_NAME":"Hadley","DIST_CODE":"01170000","lon":-72.59164288296921,"lat":42.341207715659756},"geometry":{"type":"Point","coordinates":[-72.591643,42.341208]}},{"type":"Feature","properties":{"SCHID":"00070013","NAME":"Amesbury Middle School","TOWN":"AMESBURY","GRADES":"06,07,08","TYPE_DESC":"Public Middle","DIST_NAME":"Amesbury","DIST_CODE":"00070000","lon":-70.92952120658515,"lat":42.84888293674241},"geometry":{"type":"Point","coordinates":[-70.929521,42.848883]}},{"type":"Feature","properties":{"SCHID":"00160040","NAME":"Hyman Fine Elementary School","TOWN":"ATTLEBORO","GRADES":"K,01,02,03,04","TYPE_DESC":"Public Elementary","DIST_NAME":"Attleboro","DIST_CODE":"00160000","lon":-71.27207991214604,"lat":41.91619303193286},"geometry":{"type":"Point","coordinates":[-71.27208,41.916193]}},{"type":"Feature","properties":{"SCHID":"02010040","NAME":"James B Congdon School","TOWN":"NEW BEDFORD","GRADES":"K,01,02,03,04,05","TYPE_DESC":"Public Elementary","DIST_NAME":"New Bedford","DIST_CODE":"02010000","lon":-70.93161691556648,"lat":41.62171589135536},"geometry":{"type":"Point","coordinates":[-70.931617,41.621716]}},{"type":"Feature","properties":{"SCHID":"02010510","NAME":"Trinity Day Academy","TOWN":"NEW BEDFORD","GRADES":"04,05,06,07,08,09,10,11,12","TYPE_DESC":"Public Secondary","DIST_NAME":"New Bedford","DIST_CODE":"02010000","lon":-70.93720489344815,"lat":41.639344502834284},"geometry":{"type":"Point","coordinates":[-70.937205,41.639345]}},{"type":"Feature","properties":{"SCHID":"03300015","NAME":"Woodland School","TOWN":"WESTON","GRADES":"PK,K,01,02,03","TYPE_DESC":"Public Elementary","DIST_NAME":"Weston","DIST_CODE":"03300000","lon":-71.30021446310052,"lat":42.36164396679342},"geometry":{"type":"Point","coordinates":[-71.300214,42.361644]}},{"type":"Feature","properties":{"SCHID":"00250020","NAME":"Joseph F DiPietro Elementary School","TOWN":"BELLINGHAM","GRADES":"PK,K,01,02,03","TYPE_DESC":"Public Elementary","DIST_NAME":"Bellingham","DIST_CODE":"00250000","lon":-71.4891438398443,"lat":42.033907490589975},"geometry":{"type":"Point","coordinates":[-71.489144,42.033907]}},{"type":"Feature","properties":{"SCHID":"02920006","NAME":"Elizabeth S Brown School","TOWN":"SWANSEA","GRADES":"03,04,05","TYPE_DESC":"Public Elementary","DIST_NAME":"Swansea","DIST_CODE":"02920000","lon":-71.19749379459934,"lat":41.74804020875069},"geometry":{"type":"Point","coordinates":[-71.197494,41.74804]}},{"type":"Feature","properties":{"SCHID":"03350012","NAME":"Downey School","TOWN":"WESTWOOD","GRADES":"K,01,02,03,04,05","TYPE_DESC":"Public Elementary","DIST_NAME":"Westwood","DIST_CODE":"03350000","lon":-71.17579078089621,"lat":42.214461305613725},"geometry":{"type":"Point","coordinates":[-71.175791,42.214461]}},{"type":"Feature","properties":{"SCHID":"03440020","NAME":"Lynch Elementary School","TOWN":"WINCHESTER","GRADES":"PK,K,01,02,03,04,05","TYPE_DESC":"Public Elementary","DIST_NAME":"Winchester","DIST_CODE":"03440000","lon":-71.15054689399183,"lat":42.46077946841266},"geometry":{"type":"Point","coordinates":[-71.150547,42.460779]}},{"type":"Feature","properties":{"SCHID":"00250510","NAME":"Keough Memorial Academy","TOWN":"BELLINGHAM","GRADES":"07,08,09,10,11,12","TYPE_DESC":"Public Secondary","DIST_NAME":"Bellingham","DIST_CODE":"00250000","lon":-71.4891438398443,"lat":42.033907490589975},"geometry":{"type":"Point","coordinates":[-71.489144,42.033907]}},{"type":"Feature","properties":{"SCHID":"00230012","NAME":"Lt. Job Lane School","TOWN":"BEDFORD","GRADES":"03,04,05","TYPE_DESC":"Public Elementary","DIST_NAME":"Bedford","DIST_CODE":"00230000","lon":-71.27915582894911,"lat":42.51563221036875},"geometry":{"type":"Point","coordinates":[-71.279156,42.515632]}},{"type":"Feature","properties":{"SCHID":"08290605","NAME":"Joseph P Keefe Technical High School","TOWN":"FRAMINGHAM","GRADES":"09,10,11,12","TYPE_DESC":"Public Voc/Tech/Ag Reg'l HS","DIST_NAME":"South Middlesex RVT","DIST_CODE":"08290000","lon":-71.43547880476063,"lat":42.276081451596326},"geometry":{"type":"Point","coordinates":[-71.435479,42.276081]}},{"type":"Feature","properties":{"SCHID":"02780015","NAME":"Plains Elementary School","TOWN":"SOUTH HADLEY","GRADES":"PK,K,01","TYPE_DESC":"Public Elementary","DIST_NAME":"South Hadley","DIST_CODE":"02780000","lon":-72.57439816997635,"lat":42.22685288519602},"geometry":{"type":"Point","coordinates":[-72.574398,42.226853]}},{"type":"Feature","properties":{"SCHID":"04200205","NAME":"Benjamin Banneker Charter Public School","TOWN":"CAMBRIDGE","GRADES":"PK,K,01,02,03,04,05,06","TYPE_DESC":"Charter","DIST_NAME":"Benjamin Banneker Charter","DIST_CODE":"04200000","lon":-71.13170993786166,"lat":42.3921126719424},"geometry":{"type":"Point","coordinates":[-71.13171,42.392113]}},{"type":"Feature","properties":{"SCHID":"00090305","NAME":"Doherty Middle School","TOWN":"ANDOVER","GRADES":"06,07,08","TYPE_DESC":"Public Middle","DIST_NAME":"Andover","DIST_CODE":"00090000","lon":-71.1357229497461,"lat":42.65420479147474},"geometry":{"type":"Point","coordinates":[-71.135723,42.654205]}},{"type":"Feature","properties":{"SCHID":"01840005","NAME":"Howe-Manning School","TOWN":"MIDDLETON","GRADES":"PK,03,04,05,06","TYPE_DESC":"Public Elementary","DIST_NAME":"Middleton","DIST_CODE":"01840000","lon":-71.01540897612095,"lat":42.596841621620555},"geometry":{"type":"Point","coordinates":[-71.015409,42.596842]}},{"type":"Feature","properties":{"SCHID":"04890505","NAME":"Sturgis Charter Public School","TOWN":"BARNSTABLE","GRADES":"09,10,11,12","TYPE_DESC":"Charter","DIST_NAME":"Sturgis Charter","DIST_CODE":"04890000","lon":-70.28516420323515,"lat":41.651777476741145},"geometry":{"type":"Point","coordinates":[-70.285164,41.651777]}},{"type":"Feature","properties":{"SCHID":"03430040","NAME":"Memorial School","TOWN":"WINCHENDON","GRADES":"K,01,02","TYPE_DESC":"Public Elementary","DIST_NAME":"Winchendon","DIST_CODE":"03430000","lon":-72.04182890966594,"lat":42.69786175824128},"geometry":{"type":"Point","coordinates":[-72.041829,42.697862]}},{"type":"Feature","properties":{"SCHID":"00440400","NAME":"Brockton Therapeutic Day School","TOWN":"BROCKTON","GRADES":"K,01,02,03,04,05,06,07,08,09,10,11,12","TYPE_DESC":"Public Secondary","DIST_NAME":"Brockton","DIST_CODE":"00440000","lon":-71.00370432275405,"lat":42.06257234546786},"geometry":{"type":"Point","coordinates":[-71.003704,42.062572]}},{"type":"Feature","properties":{"SCHID":"06500310","NAME":"Dorothy L Beckwith School","TOWN":"REHOBOTH","GRADES":"05,06,07,08","TYPE_DESC":"Public Middle","DIST_NAME":"Dighton-Rehoboth","DIST_CODE":"06500000","lon":-71.25406156198657,"lat":41.847876397642366},"geometry":{"type":"Point","coordinates":[-71.254062,41.847876]}},{"type":"Feature","properties":{"SCHID":"03260015","NAME":"Nabnasset School","TOWN":"WESTFORD","GRADES":"PK,K,01,02","TYPE_DESC":"Public Elementary","DIST_NAME":"Westford","DIST_CODE":"03260000","lon":-71.42156141495627,"lat":42.608698449373236},"geometry":{"type":"Point","coordinates":[-71.421561,42.608698]}},{"type":"Feature","properties":{"SCHID":"02740510","NAME":"Full Circle High School","TOWN":"SOMERVILLE","GRADES":"09,10,11,12","TYPE_DESC":"Public Secondary","DIST_NAME":"Somerville","DIST_CODE":"02740000","lon":-71.09566138749202,"lat":42.38678150583409},"geometry":{"type":"Point","coordinates":[-71.095661,42.386782]}},{"type":"Feature","properties":{"SCHID":"01640405","NAME":"Lynnfield Middle School","TOWN":"LYNNFIELD","GRADES":"05,06,07,08","TYPE_DESC":"Public Middle","DIST_NAME":"Lynnfield","DIST_CODE":"01640000","lon":-71.05125696981582,"lat":42.537201706895424},"geometry":{"type":"Point","coordinates":[-71.051257,42.537202]}},{"type":"Feature","properties":{"SCHID":"00940030","NAME":"Leroy Wood School","TOWN":"FAIRHAVEN","GRADES":"PK,K,01,02,03,04,05","TYPE_DESC":"Public Elementary","DIST_NAME":"Fairhaven","DIST_CODE":"00940000","lon":-70.88086839106806,"lat":41.6357836034942},"geometry":{"type":"Point","coordinates":[-70.880868,41.635784]}},{"type":"Feature","properties":{"SCHID":"00410010","NAME":"Eddy Elementary School","TOWN":"BREWSTER","GRADES":"03,04,05","TYPE_DESC":"Public Elementary","DIST_NAME":"Brewster","DIST_CODE":"00410000","lon":-70.06993056376326,"lat":41.761627293012175},"geometry":{"type":"Point","coordinates":[-70.069931,41.761627]}},{"type":"Feature","properties":{"SCHID":"02650015","NAME":"Mildred Aitken School","TOWN":"SEEKONK","GRADES":"PK,K,01,02,03,04,05","TYPE_DESC":"Public Elementary","DIST_NAME":"Seekonk","DIST_CODE":"02650000","lon":-71.33424938252979,"lat":41.845152302481445},"geometry":{"type":"Point","coordinates":[-71.334249,41.845152]}},{"type":"Feature","properties":{"SCHID":"02290510","NAME":"Peabody Veterans Memorial High School","TOWN":"PEABODY","GRADES":"09,10,11,12","TYPE_DESC":"Public Secondary","DIST_NAME":"Peabody","DIST_CODE":"02290000","lon":-70.97496606215445,"lat":42.54424679051295},"geometry":{"type":"Point","coordinates":[-70.974966,42.544247]}},{"type":"Feature","properties":{"SCHID":"07530505","NAME":"Quabbin Regional High School","TOWN":"BARRE","GRADES":"09,10,11,12","TYPE_DESC":"Public Secondary","DIST_NAME":"Quabbin","DIST_CODE":"07530000","lon":-72.11494916336326,"lat":42.40046413690099},"geometry":{"type":"Point","coordinates":[-72.114949,42.400464]}},{"type":"Feature","properties":{"SCHID":"00930010","NAME":"Sumner G. Whittier School","TOWN":"EVERETT","GRADES":"K,01,02,03,04,05,06,07,08","TYPE_DESC":"Public Elementary","DIST_NAME":"Everett","DIST_CODE":"00930000","lon":-71.05769381455116,"lat":42.403974574044454},"geometry":{"type":"Point","coordinates":[-71.057694,42.403975]}},{"type":"Feature","properties":{"SCHID":"03350050","NAME":"Westwood Integrated Preschool","TOWN":"WESTWOOD","GRADES":"PK","TYPE_DESC":"Public Elementary","DIST_NAME":"Westwood","DIST_CODE":"03350000","lon":-71.2168308734874,"lat":42.21705772534083},"geometry":{"type":"Point","coordinates":[-71.216831,42.217058]}},{"type":"Feature","properties":{"SCHID":"02010123","NAME":"Casimir Pulaski School","TOWN":"NEW BEDFORD","GRADES":"PK,K,01,02,03,04,05","TYPE_DESC":"Public Elementary","DIST_NAME":"New Bedford","DIST_CODE":"02010000","lon":-70.94480722387078,"lat":41.72838856158773},"geometry":{"type":"Point","coordinates":[-70.944807,41.728389]}},{"type":"Feature","properties":{"SCHID":"00310305","NAME":"Marshall Middle School","TOWN":"BILLERICA","GRADES":"05,06,07","TYPE_DESC":"Public Middle","DIST_NAME":"Billerica","DIST_CODE":"00310000","lon":-71.27156692196087,"lat":42.57028937670486},"geometry":{"type":"Point","coordinates":[-71.271567,42.570289]}},{"type":"Feature","properties":{"SCHID":"07750060","NAME":"Glenwood Elementary School","TOWN":"RUTLAND","GRADES":"03,04,05","TYPE_DESC":"Public Elementary","DIST_NAME":"Wachusett","DIST_CODE":"07750000","lon":-71.94427663460365,"lat":42.38930968190065},"geometry":{"type":"Point","coordinates":[-71.944277,42.38931]}},{"type":"Feature","properties":{"SCHID":"04780505","NAME":"Francis W. Parker Charter Essential","TOWN":"AYER","GRADES":"07,08,09,10,11,12","TYPE_DESC":"Charter","DIST_NAME":"Francis W. Parker Charter Essential","DIST_CODE":"04780000","lon":-71.60610658378887,"lat":42.54887942652644},"geometry":{"type":"Point","coordinates":[-71.606107,42.548879]}},{"type":"Feature","properties":{"SCHID":"06650305","NAME":"Freetown-Lakeville Middle School","TOWN":"LAKEVILLE","GRADES":"06,07,08","TYPE_DESC":"Public Middle","DIST_NAME":"Freetown-Lakeville","DIST_CODE":"06650000","lon":-70.985759003923,"lat":41.78909695944484},"geometry":{"type":"Point","coordinates":[-70.985759,41.789097]}},{"type":"Feature","properties":{"SCHID":"01780050","NAME":"Winthrop School","TOWN":"MELROSE","GRADES":"K,01,02,03,04,05","TYPE_DESC":"Public Elementary","DIST_NAME":"Melrose","DIST_CODE":"01780000","lon":-71.05146078039971,"lat":42.457802315336984},"geometry":{"type":"Point","coordinates":[-71.051461,42.457802]}},{"type":"Feature","properties":{"SCHID":"02010015","NAME":"Elizabeth Carter Brooks School","TOWN":"NEW BEDFORD","GRADES":"K,01,02,03,04,05","TYPE_DESC":"Public Elementary","DIST_NAME":"New Bedford","DIST_CODE":"02010000","lon":-70.95349547779307,"lat":41.643282637589685},"geometry":{"type":"Point","coordinates":[-70.953495,41.643283]}},{"type":"Feature","properties":{"SCHID":"01000310","NAME":"Walsh Middle School","TOWN":"FRAMINGHAM","GRADES":"06,07,08","TYPE_DESC":"Public Middle","DIST_NAME":"Framingham","DIST_CODE":"01000000","lon":-71.42698054525705,"lat":42.322437808284064},"geometry":{"type":"Point","coordinates":[-71.426981,42.322438]}},{"type":"Feature","properties":{"SCHID":"01750505","NAME":"Medfield Senior High School","TOWN":"MEDFIELD","GRADES":"09,10,11,12","TYPE_DESC":"Public Secondary","DIST_NAME":"Medfield","DIST_CODE":"01750000","lon":-71.29642349689621,"lat":42.18542407634755},"geometry":{"type":"Point","coordinates":[-71.296423,42.185424]}},{"type":"Feature","properties":{"SCHID":"00870505","NAME":"East Longmeadow High School","TOWN":"EAST LONGMEADOW","GRADES":"09,10,11,12","TYPE_DESC":"Public Secondary","DIST_NAME":"East Longmeadow","DIST_CODE":"00870000","lon":-72.5249957072714,"lat":42.05857590771296},"geometry":{"type":"Point","coordinates":[-72.524996,42.058576]}},{"type":"Feature","properties":{"SCHID":"02200010","NAME":"Cornelius M Callahan School","TOWN":"NORWOOD","GRADES":"01,02,03,04","TYPE_DESC":"Public Elementary","DIST_NAME":"Norwood","DIST_CODE":"02200000","lon":-71.19083253938508,"lat":42.19551767802617},"geometry":{"type":"Point","coordinates":[-71.190833,42.195518]}},{"type":"Feature","properties":{"SCHID":"02010078","NAME":"Hayden/McFadden School","TOWN":"NEW BEDFORD","GRADES":"K,01,02,03,04,05","TYPE_DESC":"Public Elementary","DIST_NAME":"New Bedford","DIST_CODE":"02010000","lon":-70.93184912714567,"lat":41.65456805047166},"geometry":{"type":"Point","coordinates":[-70.931849,41.654568]}},{"type":"Feature","properties":{"SCHID":"00610090","NAME":"Gen. John J Stefanik School","TOWN":"CHICOPEE","GRADES":"PK,K,01,02,03,04,05","TYPE_DESC":"Public Elementary","DIST_NAME":"Chicopee","DIST_CODE":"00610000","lon":-72.61554567090208,"lat":42.1671167384299},"geometry":{"type":"Point","coordinates":[-72.615546,42.167117]}},{"type":"Feature","properties":{"SCHID":"00160315","NAME":"Cyril K. Brennan Middle School","TOWN":"ATTLEBORO","GRADES":"05,06,07,08","TYPE_DESC":"Public Middle","DIST_NAME":"Attleboro","DIST_CODE":"00160000","lon":-71.3047667751986,"lat":41.940241044404736},"geometry":{"type":"Point","coordinates":[-71.304767,41.940241]}},{"type":"Feature","properties":{"SCHID":"06980510","NAME":"Manchester Essex Regional High School","TOWN":"MANCHESTER-BY-THE-SEA","GRADES":"09,10,11,12","TYPE_DESC":"Public Secondary","DIST_NAME":"Manchester Essex","DIST_CODE":"06980000","lon":-70.76539342921595,"lat":42.581785965867816},"geometry":{"type":"Point","coordinates":[-70.765393,42.581786]}},{"type":"Feature","properties":{"SCHID":"00870013","NAME":"Meadow Brook School","TOWN":"EAST LONGMEADOW","GRADES":"PK,K,01,02","TYPE_DESC":"Public Elementary","DIST_NAME":"East Longmeadow","DIST_CODE":"00870000","lon":-72.48384116811276,"lat":42.07867303582803},"geometry":{"type":"Point","coordinates":[-72.483841,42.078673]}},{"type":"Feature","properties":{"SCHID":"07450010","NAME":"Helen R Donaghue School","TOWN":"MERRIMAC","GRADES":"03,04,05,06","TYPE_DESC":"Public Elementary","DIST_NAME":"Pentucket","DIST_CODE":"07450000","lon":-71.0052034790276,"lat":42.8279051567807},"geometry":{"type":"Point","coordinates":[-71.005203,42.827905]}},{"type":"Feature","properties":{"SCHID":"00480007","NAME":"Fox Hill School","TOWN":"BURLINGTON","GRADES":"K,01,02,03,04,05","TYPE_DESC":"Public Elementary","DIST_NAME":"Burlington","DIST_CODE":"00480000","lon":-71.18900975377764,"lat":42.52933492215022},"geometry":{"type":"Point","coordinates":[-71.18901,42.529335]}},{"type":"Feature","properties":{"SCHID":"01750305","NAME":"Thomas Blake Middle School","TOWN":"MEDFIELD","GRADES":"06,07,08","TYPE_DESC":"Public Middle","DIST_NAME":"Medfield","DIST_CODE":"01750000","lon":-71.29568764456752,"lat":42.185901742671966},"geometry":{"type":"Point","coordinates":[-71.295688,42.185902]}},{"type":"Feature","properties":{"SCHID":"02390047","NAME":"West Elementary School","TOWN":"PLYMOUTH","GRADES":"K,01,02,03,04,05","TYPE_DESC":"Public Elementary","DIST_NAME":"Plymouth","DIST_CODE":"02390000","lon":-70.72140724882861,"lat":41.94498977843874},"geometry":{"type":"Point","coordinates":[-70.721407,41.94499]}},{"type":"Feature","properties":{"SCHID":"04960305","NAME":"Global Learning Charter Public School","TOWN":"NEW BEDFORD","GRADES":"05,06,07,08,09,10,11,12","TYPE_DESC":"Charter","DIST_NAME":"Global Learning Charter","DIST_CODE":"04960000","lon":-70.92928722645541,"lat":41.659932815559614},"geometry":{"type":"Point","coordinates":[-70.929287,41.659933]}},{"type":"Feature","properties":{"SCHID":"03420005","NAME":"Boutwell School","TOWN":"WILMINGTON","GRADES":"PK,K","TYPE_DESC":"Public Elementary","DIST_NAME":"Wilmington","DIST_CODE":"03420000","lon":-71.18839779748745,"lat":42.5487089086594},"geometry":{"type":"Point","coordinates":[-71.188398,42.548709]}},{"type":"Feature","properties":{"SCHID":"02010075","NAME":"Ellen R Hathaway School","TOWN":"NEW BEDFORD","GRADES":"K,01,02,03,04,05","TYPE_DESC":"Public Elementary","DIST_NAME":"New Bedford","DIST_CODE":"02010000","lon":-70.94007327152629,"lat":41.633233362106225},"geometry":{"type":"Point","coordinates":[-70.940073,41.633233]}},{"type":"Feature","properties":{"SCHID":"03420080","NAME":"West Intermediate School","TOWN":"WILMINGTON","GRADES":"PK,K,04,05","TYPE_DESC":"Public Elementary","DIST_NAME":"Wilmington","DIST_CODE":"03420000","lon":-71.18839779748745,"lat":42.5487089086594},"geometry":{"type":"Point","coordinates":[-71.188398,42.548709]}},{"type":"Feature","properties":{"SCHID":"02740005","NAME":"Capuano Early Childhood Center","TOWN":"SOMERVILLE","GRADES":"PK,K,01","TYPE_DESC":"Public Elementary","DIST_NAME":"Somerville","DIST_CODE":"02740000","lon":-71.08672897114542,"lat":42.38249213572344},"geometry":{"type":"Point","coordinates":[-71.086729,42.382492]}},{"type":"Feature","properties":{"SCHID":"08050605","NAME":"Blackstone Valley Regional Vocational Technical High School","TOWN":"UPTON","GRADES":"09,10,11,12","TYPE_DESC":"Public Voc/Tech/Ag Reg'l HS","DIST_NAME":"Blackstone Valley RVT","DIST_CODE":"08050000","lon":-71.61632104197602,"lat":42.16323921443001},"geometry":{"type":"Point","coordinates":[-71.616321,42.163239]}},{"type":"Feature","properties":{"SCHID":"00440010","NAME":"Brookfield School","TOWN":"BROCKTON","GRADES":"PK,K,01,02,03,04,05","TYPE_DESC":"Public Elementary","DIST_NAME":"Brockton","DIST_CODE":"00440000","lon":-71.00970523472841,"lat":42.11755149330981},"geometry":{"type":"Point","coordinates":[-71.009705,42.117551]}},{"type":"Feature","properties":{"SCHID":"02360310","NAME":"Theodore Herberg Middle School","TOWN":"PITTSFIELD","GRADES":"06,07,08","TYPE_DESC":"Public Middle","DIST_NAME":"Pittsfield","DIST_CODE":"02360000","lon":-73.24186438770319,"lat":42.434067106471765},"geometry":{"type":"Point","coordinates":[-73.241864,42.434067]}},{"type":"Feature","properties":{"SCHID":"02430040","NAME":"Atherton Hough School","TOWN":"QUINCY","GRADES":"K,01,02,03,04,05","TYPE_DESC":"Public Elementary","DIST_NAME":"Quincy","DIST_CODE":"02430000","lon":-70.95754910942112,"lat":42.26673753928295},"geometry":{"type":"Point","coordinates":[-70.957549,42.266738]}},{"type":"Feature","properties":{"SCHID":"01590025","NAME":"Wolf Swamp Road School","TOWN":"LONGMEADOW","GRADES":"PK,K,01,02,03,04,05","TYPE_DESC":"Public Elementary","DIST_NAME":"Longmeadow","DIST_CODE":"01590000","lon":-72.56030947241011,"lat":42.03815771571124},"geometry":{"type":"Point","coordinates":[-72.560309,42.038158]}},{"type":"Feature","properties":{"SCHID":"00230010","NAME":"Lt. Eleazer Davis Elementary School","TOWN":"BEDFORD","GRADES":"PK,K,01,02","TYPE_DESC":"Public Elementary","DIST_NAME":"Bedford","DIST_CODE":"00230000","lon":-71.30918422056531,"lat":42.48508660555093},"geometry":{"type":"Point","coordinates":[-71.309184,42.485087]}},{"type":"Feature","properties":{"SCHID":"01640010","NAME":"Huckleberry Hill School","TOWN":"LYNNFIELD","GRADES":"K,01,02,03,04","TYPE_DESC":"Public Elementary","DIST_NAME":"Lynnfield","DIST_CODE":"01640000","lon":-71.02294720322887,"lat":42.52310505488327},"geometry":{"type":"Point","coordinates":[-71.022947,42.523105]}},{"type":"Feature","properties":{"SCHID":"00310026","NAME":"Hajjar Elementary School","TOWN":"BILLERICA","GRADES":"K,01,02,03,04","TYPE_DESC":"Public Elementary","DIST_NAME":"Billerica","DIST_CODE":"00310000","lon":-71.27955534026113,"lat":42.58592963666192},"geometry":{"type":"Point","coordinates":[-71.279555,42.58593]}},{"type":"Feature","properties":{"SCHID":"00960405","NAME":"Lawrence School","TOWN":"FALMOUTH","GRADES":"07,08","TYPE_DESC":"Public Middle","DIST_NAME":"Falmouth","DIST_CODE":"00960000","lon":-70.61532034502552,"lat":41.55535020155128},"geometry":{"type":"Point","coordinates":[-70.61532,41.55535]}},{"type":"Feature","properties":{"SCHID":"00310015","NAME":"Parker School","TOWN":"BILLERICA","GRADES":"K,01,02,03,04","TYPE_DESC":"Public Elementary","DIST_NAME":"Billerica","DIST_CODE":"00310000","lon":-71.27277099258308,"lat":42.55742295615545},"geometry":{"type":"Point","coordinates":[-71.272771,42.557423]}},{"type":"Feature","properties":{"SCHID":"01070042","NAME":"Plum Cove School","TOWN":"GLOUCESTER","GRADES":"K,01,02,03,04,05","TYPE_DESC":"Public Elementary","DIST_NAME":"Gloucester","DIST_CODE":"01070000","lon":-70.65911164153961,"lat":42.67347603321704},"geometry":{"type":"Point","coordinates":[-70.659112,42.673476]}},{"type":"Feature","properties":{"SCHID":"00790035","NAME":"Brookside Elementary School","TOWN":"DRACUT","GRADES":"PK,K,01,02,03,04,05","TYPE_DESC":"Public Elementary","DIST_NAME":"Dracut","DIST_CODE":"00790000","lon":-71.3418936165966,"lat":42.67281739299193},"geometry":{"type":"Point","coordinates":[-71.341894,42.672817]}},{"type":"Feature","properties":{"SCHID":"06600305","NAME":"Nauset Regional Middle School","TOWN":"ORLEANS","GRADES":"06,07,08","TYPE_DESC":"Public Middle","DIST_NAME":"Nauset","DIST_CODE":"06600000","lon":-69.98947013918975,"lat":41.78348242690656},"geometry":{"type":"Point","coordinates":[-69.98947,41.783482]}},{"type":"Feature","properties":{"SCHID":"06750007","NAME":"Bessie Buker Elementary School","TOWN":"WENHAM","GRADES":"K,01,02,03,04,05","TYPE_DESC":"Public Elementary","DIST_NAME":"Hamilton-Wenham","DIST_CODE":"06750000","lon":-70.88534098703057,"lat":42.60858480366203},"geometry":{"type":"Point","coordinates":[-70.885341,42.608585]}},{"type":"Feature","properties":{"SCHID":"02580003","NAME":"Bates School","TOWN":"SALEM","GRADES":"PK,K,01,02,03,04,05","TYPE_DESC":"Public Elementary","DIST_NAME":"Salem","DIST_CODE":"02580000","lon":-70.90577658919386,"lat":42.53454214454255},"geometry":{"type":"Point","coordinates":[-70.905777,42.534542]}},{"type":"Feature","properties":{"SCHID":"06500010","NAME":"Palmer River School","TOWN":"REHOBOTH","GRADES":"PK,K,01,02,03,04","TYPE_DESC":"Public Elementary","DIST_NAME":"Dighton-Rehoboth","DIST_CODE":"06500000","lon":-71.25406156198657,"lat":41.847876397642366},"geometry":{"type":"Point","coordinates":[-71.254062,41.847876]}},{"type":"Feature","properties":{"SCHID":"07250310","NAME":"Hale School","TOWN":"STOW","GRADES":"06,07,08","TYPE_DESC":"Public Middle","DIST_NAME":"Nashoba","DIST_CODE":"07250000","lon":-71.50716211043421,"lat":42.44081219725461},"geometry":{"type":"Point","coordinates":[-71.507162,42.440812]}},{"type":"Feature","properties":{"SCHID":"01730010","NAME":"Old Hammondtown School","TOWN":"MATTAPOISETT","GRADES":"04,05,06","TYPE_DESC":"Public Elementary","DIST_NAME":"Mattapoisett","DIST_CODE":"01730000","lon":-70.83220210347493,"lat":41.66005951301339},"geometry":{"type":"Point","coordinates":[-70.832202,41.66006]}},{"type":"Feature","properties":{"SCHID":"02730005","NAME":"Chace Street School","TOWN":"SOMERSET","GRADES":"K,01,02,03,04,05","TYPE_DESC":"Public Elementary","DIST_NAME":"Somerset","DIST_CODE":"02730000","lon":-71.14762413343566,"lat":41.76342565595684},"geometry":{"type":"Point","coordinates":[-71.147624,41.763426]}},{"type":"Feature","properties":{"SCHID":"00050030","NAME":"James Clark School","TOWN":"AGAWAM","GRADES":"K,01,02,03,04","TYPE_DESC":"Public Elementary","DIST_NAME":"Agawam","DIST_CODE":"00050000","lon":-72.63164908469066,"lat":42.04542121933389},"geometry":{"type":"Point","coordinates":[-72.631649,42.045421]}},{"type":"Feature","properties":{"SCHID":"01630060","NAME":"Ingalls School","TOWN":"LYNN","GRADES":"K,01,02,03,04,05","TYPE_DESC":"Public Elementary","DIST_NAME":"Lynn","DIST_CODE":"01630000","lon":-70.93662574599288,"lat":42.47158814275588},"geometry":{"type":"Point","coordinates":[-70.936626,42.471588]}},{"type":"Feature","properties":{"SCHID":"00500010","NAME":"Rodman Early Childhood Center","TOWN":"CANTON","GRADES":"PK","TYPE_DESC":"Public Elementary","DIST_NAME":"Canton","DIST_CODE":"00500000","lon":-71.14733573505752,"lat":42.1645504084772},"geometry":{"type":"Point","coordinates":[-71.147336,42.16455]}},{"type":"Feature","properties":{"SCHID":"03440305","NAME":"McCall Middle School","TOWN":"WINCHESTER","GRADES":"06,07,08","TYPE_DESC":"Public Middle","DIST_NAME":"Winchester","DIST_CODE":"03440000","lon":-71.13498179128946,"lat":42.44993222283027},"geometry":{"type":"Point","coordinates":[-71.134982,42.449932]}},{"type":"Feature","properties":{"SCHID":"00610022","NAME":"Litwin School","TOWN":"CHICOPEE","GRADES":"02,03,04,05","TYPE_DESC":"Public Elementary","DIST_NAME":"Chicopee","DIST_CODE":"00610000","lon":-72.52429920217658,"lat":42.174760947290096},"geometry":{"type":"Point","coordinates":[-72.524299,42.174761]}},{"type":"Feature","properties":{"SCHID":"07730025","NAME":"Pine Grove School","TOWN":"ROWLEY","GRADES":"PK,K,01,02,03,04,05,06","TYPE_DESC":"Public Elementary","DIST_NAME":"Triton","DIST_CODE":"07730000","lon":-70.87467599658724,"lat":42.71698509250768},"geometry":{"type":"Point","coordinates":[-70.874676,42.716985]}},{"type":"Feature","properties":{"SCHID":"04880550","NAME":"South Shore Charter Public School","TOWN":"NORWELL","GRADES":"K,01,02,03,04,05,06,07,08,09,10,11,12","TYPE_DESC":"Charter","DIST_NAME":"South Shore Charter","DIST_CODE":"04880000","lon":-70.88130032412373,"lat":42.15668045217906},"geometry":{"type":"Point","coordinates":[-70.8813,42.15668]}},{"type":"Feature","properties":{"SCHID":"01630095","NAME":"Edward A Sisson School","TOWN":"LYNN","GRADES":"PK,K,01,02,03,04,05","TYPE_DESC":"Public Elementary","DIST_NAME":"Lynn","DIST_CODE":"01630000","lon":-70.95783340309784,"lat":42.48632321201603},"geometry":{"type":"Point","coordinates":[-70.957833,42.486323]}},{"type":"Feature","properties":{"SCHID":"02880305","NAME":"Ephraim Curtis Middle School","TOWN":"SUDBURY","GRADES":"06,07,08","TYPE_DESC":"Public Middle","DIST_NAME":"Sudbury","DIST_CODE":"02880000","lon":-71.43305277734433,"lat":42.380271900275474},"geometry":{"type":"Point","coordinates":[-71.433053,42.380272]}},{"type":"Feature","properties":{"SCHID":"01070050","NAME":"West Parish School","TOWN":"GLOUCESTER","GRADES":"K,01,02,03,04,05","TYPE_DESC":"Public Elementary","DIST_NAME":"Gloucester","DIST_CODE":"01070000","lon":-70.71203000533681,"lat":42.619498151686535},"geometry":{"type":"Point","coordinates":[-70.71203,42.619498]}},{"type":"Feature","properties":{"SCHID":"02170010","NAME":"J. Turner Hood Elementary School","TOWN":"NORTH READING","GRADES":"PK,K,01,02,03,04,05","TYPE_DESC":"Public Elementary","DIST_NAME":"North Reading","DIST_CODE":"02170000","lon":-71.08914756631431,"lat":42.5951292729291},"geometry":{"type":"Point","coordinates":[-71.089148,42.595129]}},{"type":"Feature","properties":{"SCHID":"00440017","NAME":"John F Kennedy School","TOWN":"BROCKTON","GRADES":"K,01,02,03,04,05","TYPE_DESC":"Public Elementary","DIST_NAME":"Brockton","DIST_CODE":"00440000","lon":-71.03733960150018,"lat":42.05949156493274},"geometry":{"type":"Point","coordinates":[-71.03734,42.059492]}},{"type":"Feature","properties":{"SCHID":"03440040","NAME":"Muraco Elementary School","TOWN":"WINCHESTER","GRADES":"K,01,02,03,04,05","TYPE_DESC":"Public Elementary","DIST_NAME":"Winchester","DIST_CODE":"03440000","lon":-71.13123961539686,"lat":42.463215494554554},"geometry":{"type":"Point","coordinates":[-71.13124,42.463215]}},{"type":"Feature","properties":{"SCHID":"00460035","NAME":"William H Lincoln School","TOWN":"BROOKLINE","GRADES":"K,01,02,03,04,05,06,07,08","TYPE_DESC":"Public Elementary","DIST_NAME":"Brookline","DIST_CODE":"00460000","lon":-71.12929290456168,"lat":42.32855195327263},"geometry":{"type":"Point","coordinates":[-71.129293,42.328552]}},{"type":"Feature","properties":{"SCHID":"00090010","NAME":"Henry C Sanborn Elementary School","TOWN":"ANDOVER","GRADES":"K,01,02,03,04,05","TYPE_DESC":"Public Elementary","DIST_NAME":"Andover","DIST_CODE":"00090000","lon":-71.1785501702854,"lat":42.64199810112728},"geometry":{"type":"Point","coordinates":[-71.17855,42.641998]}},{"type":"Feature","properties":{"SCHID":"03350017","NAME":"Martha Jones School","TOWN":"WESTWOOD","GRADES":"K,01,02,03,04,05","TYPE_DESC":"Public Elementary","DIST_NAME":"Westwood","DIST_CODE":"03350000","lon":-71.23506230543083,"lat":42.2001153390833},"geometry":{"type":"Point","coordinates":[-71.235062,42.200115]}},{"type":"Feature","properties":{"SCHID":"04660550","NAME":"Martha's Vineyard Public Charter School","TOWN":"WEST TISBURY","GRADES":"K,01,02,03,04,05,06,07,08,09,10,11,12","TYPE_DESC":"Charter","DIST_NAME":"Martha's Vineyard Charter","DIST_CODE":"04660000","lon":-70.6645307668032,"lat":41.41929300549069},"geometry":{"type":"Point","coordinates":[-70.664531,41.419293]}},{"type":"Feature","properties":{"SCHID":"08790605","NAME":"Upper Cape Cod Vocational Technical School","TOWN":"BOURNE","GRADES":"09,10,11,12","TYPE_DESC":"Public Voc/Tech/Ag Reg'l HS","DIST_NAME":"Upper Cape Cod RVT","DIST_CODE":"08790000","lon":-70.57892085226216,"lat":41.74527286898729},"geometry":{"type":"Point","coordinates":[-70.578921,41.745273]}},{"type":"Feature","properties":{"SCHID":"00180010","NAME":"Ralph D Butler School","TOWN":"AVON","GRADES":"PK,K,01,02,03,04,05","TYPE_DESC":"Public Elementary","DIST_NAME":"Avon","DIST_CODE":"00180000","lon":-71.04543390000987,"lat":42.11422540909028},"geometry":{"type":"Point","coordinates":[-71.045434,42.114225]}},{"type":"Feature","properties":{"SCHID":"00310310","NAME":"Locke Middle School","TOWN":"BILLERICA","GRADES":"05,06,07","TYPE_DESC":"Public Middle","DIST_NAME":"Billerica","DIST_CODE":"00310000","lon":-71.24627687736633,"lat":42.55119104142887},"geometry":{"type":"Point","coordinates":[-71.246277,42.551191]}},{"type":"Feature","properties":{"SCHID":"07150505","NAME":"Mount Greylock Regional High School","TOWN":"WILLIAMSTOWN","GRADES":"07,08,09,10,11,12","TYPE_DESC":"Public Secondary","DIST_NAME":"Mount Greylock","DIST_CODE":"07150000","lon":-73.2419681601122,"lat":42.670871510168695},"geometry":{"type":"Point","coordinates":[-73.241968,42.670872]}},{"type":"Feature","properties":{"SCHID":"00500017","NAME":"John F Kennedy School","TOWN":"CANTON","GRADES":"K,01,02,03,04,05","TYPE_DESC":"Public Elementary","DIST_NAME":"Canton","DIST_CODE":"00500000","lon":-71.14264623912237,"lat":42.175187898381935},"geometry":{"type":"Point","coordinates":[-71.142646,42.175188]}},{"type":"Feature","properties":{"SCHID":"00610020","NAME":"Bowie School","TOWN":"CHICOPEE","GRADES":"PK,K,01,02,03,04,05","TYPE_DESC":"Public Elementary","DIST_NAME":"Chicopee","DIST_CODE":"00610000","lon":-72.5588314271668,"lat":42.197825738041146},"geometry":{"type":"Point","coordinates":[-72.558831,42.197826]}},{"type":"Feature","properties":{"SCHID":"01810050","NAME":"Comprehensive Grammar School","TOWN":"METHUEN","GRADES":"K,01,02,03,04,05,06,07,08","TYPE_DESC":"Public Elementary","DIST_NAME":"Methuen","DIST_CODE":"01810000","lon":-71.17578893741107,"lat":42.74755895812852},"geometry":{"type":"Point","coordinates":[-71.175789,42.747559]}},{"type":"Feature","properties":{"SCHID":"02240005","NAME":"Orleans Elementary School","TOWN":"ORLEANS","GRADES":"K,01,02,03,04,05","TYPE_DESC":"Public Elementary","DIST_NAME":"Orleans","DIST_CODE":"02240000","lon":-69.99404436848054,"lat":41.78109274409256},"geometry":{"type":"Point","coordinates":[-69.994044,41.781093]}},{"type":"Feature","properties":{"SCHID":"01890410","NAME":"Charles S Pierce Middle School","TOWN":"MILTON","GRADES":"06,07,08","TYPE_DESC":"Public Middle","DIST_NAME":"Milton","DIST_CODE":"01890000","lon":-71.0834030412014,"lat":42.25786495353568},"geometry":{"type":"Point","coordinates":[-71.083403,42.257865]}},{"type":"Feature","properties":{"SCHID":"06830505","NAME":"Hampshire Regional High School","TOWN":"WESTHAMPTON","GRADES":"07,08,09,10,11,12","TYPE_DESC":"Public Secondary","DIST_NAME":"Hampshire","DIST_CODE":"06830000","lon":-72.7717130952277,"lat":42.30282052726083},"geometry":{"type":"Point","coordinates":[-72.771713,42.302821]}},{"type":"Feature","properties":{"SCHID":"07450015","NAME":"Dr. John C Page School","TOWN":"WEST NEWBURY","GRADES":"PK,K,01,02,03,04,05,06","TYPE_DESC":"Public Elementary","DIST_NAME":"Pentucket","DIST_CODE":"07450000","lon":-70.96167295593698,"lat":42.80877599750784},"geometry":{"type":"Point","coordinates":[-70.961673,42.808776]}},{"type":"Feature","properties":{"SCHID":"00050505","NAME":"Agawam High School","TOWN":"AGAWAM","GRADES":"09,10,11,12","TYPE_DESC":"Public Secondary","DIST_NAME":"Agawam","DIST_CODE":"00050000","lon":-72.64510198700347,"lat":42.0742026805491},"geometry":{"type":"Point","coordinates":[-72.645102,42.074203]}},{"type":"Feature","properties":{"SCHID":"02040030","NAME":"Edward G. Molin Elementary School","TOWN":"NEWBURYPORT","GRADES":"04,05","TYPE_DESC":"Public Elementary","DIST_NAME":"Newburyport","DIST_CODE":"02040000","lon":-70.88742549097655,"lat":42.80879186242353},"geometry":{"type":"Point","coordinates":[-70.887425,42.808792]}},{"type":"Feature","properties":{"SCHID":"01820505","NAME":"Middleborough High School","TOWN":"MIDDLEBOROUGH","GRADES":"09,10,11,12","TYPE_DESC":"Public Secondary","DIST_NAME":"Middleborough","DIST_CODE":"01820000","lon":-70.90456671048383,"lat":41.88035085254425},"geometry":{"type":"Point","coordinates":[-70.904567,41.880351]}},{"type":"Feature","properties":{"SCHID":"00400033","NAME":"Archie T Morrison School","TOWN":"BRAINTREE","GRADES":"K,01,02,03,04","TYPE_DESC":"Public Elementary","DIST_NAME":"Braintree","DIST_CODE":"00400000","lon":-70.97918181266579,"lat":42.21032462025821},"geometry":{"type":"Point","coordinates":[-70.979182,42.210325]}},{"type":"Feature","properties":{"SCHID":"01850090","NAME":"Woodland School","TOWN":"MILFORD","GRADES":"03,04,05","TYPE_DESC":"Public Elementary","DIST_NAME":"Milford","DIST_CODE":"01850000","lon":-71.54147043295195,"lat":42.15884882038418},"geometry":{"type":"Point","coordinates":[-71.54147,42.158849]}},{"type":"Feature","properties":{"SCHID":"04540205","NAME":"Lawrence Family Development Charter School","TOWN":"LAWRENCE","GRADES":"PK,K,01,02,03,04,05,06,07,08","TYPE_DESC":"Charter","DIST_NAME":"Lawrence Family Development Charter","DIST_CODE":"04540000","lon":-71.17389982510393,"lat":42.70848067680699},"geometry":{"type":"Point","coordinates":[-71.1739,42.708481]}},{"type":"Feature","properties":{"SCHID":"02480025","NAME":"Abraham Lincoln School","TOWN":"REVERE","GRADES":"PK,K,01,02,03,04,05","TYPE_DESC":"Public Elementary","DIST_NAME":"Revere","DIST_CODE":"02480000","lon":-71.00994527840984,"lat":42.416787771969766},"geometry":{"type":"Point","coordinates":[-71.009945,42.416788]}},{"type":"Feature","properties":{"SCHID":"04790505","NAME":"Pioneer Valley Performing Arts Charter Public School","TOWN":"SOUTH HADLEY","GRADES":"07,08,09,10,11,12","TYPE_DESC":"Charter","DIST_NAME":"Pioneer Valley Performing Arts Charter","DIST_CODE":"04790000","lon":-72.59927029611566,"lat":42.2412031418405},"geometry":{"type":"Point","coordinates":[-72.59927,42.241203]}},{"type":"Feature","properties":{"SCHID":"06220008","NAME":"John F Kennedy Elementary School","TOWN":"BLACKSTONE","GRADES":"PK","TYPE_DESC":"Public Elementary","DIST_NAME":"Blackstone-Millville","DIST_CODE":"06220000","lon":-71.54549837136315,"lat":42.02898229455547},"geometry":{"type":"Point","coordinates":[-71.545498,42.028982]}},{"type":"Feature","properties":{"SCHID":"01000039","NAME":"Potter Road School","TOWN":"FRAMINGHAM","GRADES":"K,01,02,03,04,05","TYPE_DESC":"Public Elementary","DIST_NAME":"Framingham","DIST_CODE":"01000000","lon":-71.41394209312175,"lat":42.33702841229413},"geometry":{"type":"Point","coordinates":[-71.413942,42.337028]}},{"type":"Feature","properties":{"SCHID":"01270505","NAME":"Smith Academy","TOWN":"HATFIELD","GRADES":"06,07,08,09,10,11,12","TYPE_DESC":"Public Secondary","DIST_NAME":"Hatfield","DIST_CODE":"01270000","lon":-72.60064328712188,"lat":42.37559358352458},"geometry":{"type":"Point","coordinates":[-72.600643,42.375594]}},{"type":"Feature","properties":{"SCHID":"01770015","NAME":"Burke/Memorial Elementary School","TOWN":"MEDWAY","GRADES":"02,03,04","TYPE_DESC":"Public Elementary","DIST_NAME":"Medway","DIST_CODE":"01770000","lon":-71.40772124877726,"lat":42.141286667564906},"geometry":{"type":"Point","coordinates":[-71.407721,42.141287]}},{"type":"Feature","properties":{"SCHID":"01490537","NAME":"School for Exceptional Studies","TOWN":"LAWRENCE","GRADES":"PK,K,01,02,03,04,05,06,07,08,09,10,11,12","TYPE_DESC":"Public Secondary","DIST_NAME":"Lawrence","DIST_CODE":"01490000","lon":-71.16360176573387,"lat":42.71058930247326},"geometry":{"type":"Point","coordinates":[-71.163602,42.710589]}},{"type":"Feature","properties":{"SCHID":"01720505","NAME":"Mashpee Middle-High School","TOWN":"MASHPEE","GRADES":"07,08,09,10,11,12","TYPE_DESC":"Public Secondary","DIST_NAME":"Mashpee","DIST_CODE":"01720000","lon":-70.50628811382789,"lat":41.614681581213276},"geometry":{"type":"Point","coordinates":[-70.506288,41.614682]}},{"type":"Feature","properties":{"SCHID":"04060705","NAME":"Smith Vocational and Agricultural High School","TOWN":"NORTHAMPTON","GRADES":"09,10,11,12","TYPE_DESC":"Public Secondary","DIST_NAME":"Northampton-Smith Vocational Agricultural","DIST_CODE":"04060000","lon":-72.65693033994107,"lat":42.33126760700237},"geometry":{"type":"Point","coordinates":[-72.65693,42.331268]}},{"type":"Feature","properties":{"SCHID":"02390030","NAME":"Nathaniel Morton Elementary School","TOWN":"PLYMOUTH","GRADES":"K,01,02,03,04,05","TYPE_DESC":"Public Elementary","DIST_NAME":"Plymouth","DIST_CODE":"02390000","lon":-70.65993542778918,"lat":41.95410585507884},"geometry":{"type":"Point","coordinates":[-70.659935,41.954106]}},{"type":"Feature","properties":{"SCHID":"01620025","NAME":"Turkey Hill Elementary School","TOWN":"LUNENBURG","GRADES":"03,04,05","TYPE_DESC":"Public Elementary","DIST_NAME":"Lunenburg","DIST_CODE":"01620000","lon":-71.71907359901257,"lat":42.601081907266106},"geometry":{"type":"Point","coordinates":[-71.719074,42.601082]}},{"type":"Feature","properties":{"SCHID":"02390010","NAME":"Hedge School","TOWN":"PLYMOUTH","GRADES":"K,01,02,03,04,05","TYPE_DESC":"Public Elementary","DIST_NAME":"Plymouth","DIST_CODE":"02390000","lon":-70.68746134070352,"lat":41.97387626963887},"geometry":{"type":"Point","coordinates":[-70.687461,41.973876]}},{"type":"Feature","properties":{"SCHID":"01440015","NAME":"Winthrop School","TOWN":"IPSWICH","GRADES":"PK,K,01,02,03,04,05","TYPE_DESC":"Public Elementary","DIST_NAME":"Ipswich","DIST_CODE":"01440000","lon":-70.8398032277156,"lat":42.682615816826385},"geometry":{"type":"Point","coordinates":[-70.839803,42.682616]}},{"type":"Feature","properties":{"SCHID":"07170010","NAME":"Colrain Central School","TOWN":"COLRAIN","GRADES":"PK,K,01,02,03,04,05,06","TYPE_DESC":"Public Elementary","DIST_NAME":"Mohawk Trail","DIST_CODE":"07170000","lon":-72.69698389238593,"lat":42.67586494088835},"geometry":{"type":"Point","coordinates":[-72.696984,42.675865]}},{"type":"Feature","properties":{"SCHID":"00200005","NAME":"West Barnstable Elementary School","TOWN":"BARNSTABLE","GRADES":"K,01,02,03","TYPE_DESC":"Public Elementary","DIST_NAME":"Barnstable","DIST_CODE":"00200000","lon":-70.32724321678704,"lat":41.69881553842147},"geometry":{"type":"Point","coordinates":[-70.327243,41.698816]}},{"type":"Feature","properties":{"SCHID":"01310020","NAME":"South Elementary School","TOWN":"HINGHAM","GRADES":"K,01,02,03,04,05","TYPE_DESC":"Public Elementary","DIST_NAME":"Hingham","DIST_CODE":"01310000","lon":-70.88469690405702,"lat":42.200875968524215},"geometry":{"type":"Point","coordinates":[-70.884697,42.200876]}},{"type":"Feature","properties":{"SCHID":"02010140","NAME":"Betsey B Winslow School","TOWN":"NEW BEDFORD","GRADES":"K,01,02,03,04,05","TYPE_DESC":"Public Elementary","DIST_NAME":"New Bedford","DIST_CODE":"02010000","lon":-70.9445293294093,"lat":41.62537799042778},"geometry":{"type":"Point","coordinates":[-70.944529,41.625378]}},{"type":"Feature","properties":{"SCHID":"04300305","NAME":"Advanced Math and Science Academy Charter School","TOWN":"MARLBOROUGH","GRADES":"06,07,08,09,10,11,12","TYPE_DESC":"Charter","DIST_NAME":"Advanced Math and Science Academy Charter","DIST_CODE":"04300000","lon":-71.57781559007104,"lat":42.33364671241723},"geometry":{"type":"Point","coordinates":[-71.577816,42.333647]}},{"type":"Feature","properties":{"SCHID":"00170010","NAME":"Bryn Mawr School","TOWN":"AUBURN","GRADES":"K,01,02","TYPE_DESC":"Public Elementary","DIST_NAME":"Auburn","DIST_CODE":"00170000","lon":-71.8451874169796,"lat":42.20462950934997},"geometry":{"type":"Point","coordinates":[-71.845187,42.20463]}},{"type":"Feature","properties":{"SCHID":"07750027","NAME":"Houghton Elementary School","TOWN":"STERLING","GRADES":"K,01,02,03,04","TYPE_DESC":"Public Elementary","DIST_NAME":"Wachusett","DIST_CODE":"07750000","lon":-71.77793997484815,"lat":42.4133195241986},"geometry":{"type":"Point","coordinates":[-71.77794,42.41332]}},{"type":"Feature","properties":{"SCHID":"04940205","NAME":"Pioneer Charter School of Science","TOWN":"EVERETT","GRADES":"K,01,02,03,04,05,06,07,08,09,10,11,12","TYPE_DESC":"Charter","DIST_NAME":"Pioneer Charter School of Science","DIST_CODE":"04940000","lon":-71.05128533508811,"lat":42.40812312997258},"geometry":{"type":"Point","coordinates":[-71.051285,42.408123]}},{"type":"Feature","properties":{"SCHID":"03360080","NAME":"William Seach School","TOWN":"WEYMOUTH","GRADES":"K,01,02,03,04,05","TYPE_DESC":"Public Elementary","DIST_NAME":"Weymouth","DIST_CODE":"03360000","lon":-70.94412470010703,"lat":42.19667451549027},"geometry":{"type":"Point","coordinates":[-70.944125,42.196675]}},{"type":"Feature","properties":{"SCHID":"00940305","NAME":"Hastings Middle School","TOWN":"FAIRHAVEN","GRADES":"06,07,08","TYPE_DESC":"Public Middle","DIST_NAME":"Fairhaven","DIST_CODE":"00940000","lon":-70.898122968587,"lat":41.64690748000273},"geometry":{"type":"Point","coordinates":[-70.898123,41.646907]}},{"type":"Feature","properties":{"SCHID":"00160001","NAME":"A. Irvin Studley Elementary School","TOWN":"ATTLEBORO","GRADES":"K,01,02,03,04","TYPE_DESC":"Public Elementary","DIST_NAME":"Attleboro","DIST_CODE":"00160000","lon":-71.30789447380066,"lat":41.93756698406473},"geometry":{"type":"Point","coordinates":[-71.307894,41.937567]}},{"type":"Feature","properties":{"SCHID":"04850485","NAME":"Salem Academy Charter School","TOWN":"SALEM","GRADES":"06,07,08,09,10,11,12","TYPE_DESC":"Charter","DIST_NAME":"Salem Academy Charter","DIST_CODE":"04850000","lon":-70.88620565963028,"lat":42.515802251200064},"geometry":{"type":"Point","coordinates":[-70.886206,42.515802]}},{"type":"Feature","properties":{"SCHID":"02710015","NAME":"Calvin Coolidge School","TOWN":"SHREWSBURY","GRADES":"K,01,02,03,04","TYPE_DESC":"Public Elementary","DIST_NAME":"Shrewsbury","DIST_CODE":"02710000","lon":-71.74865763425113,"lat":42.265312698212504},"geometry":{"type":"Point","coordinates":[-71.748658,42.265313]}},{"type":"Feature","properties":{"SCHID":"00030025","NAME":"Acushnet Elementary School","TOWN":"ACUSHNET","GRADES":"PK,K,01,02,03,04","TYPE_DESC":"Public Elementary","DIST_NAME":"Acushnet","DIST_CODE":"00030000","lon":-70.90540394068522,"lat":41.72426671806266},"geometry":{"type":"Point","coordinates":[-70.905404,41.724267]}},{"type":"Feature","properties":{"SCHID":"03420505","NAME":"Wilmington High School","TOWN":"WILMINGTON","GRADES":"09,10,11,12","TYPE_DESC":"Public Secondary","DIST_NAME":"Wilmington","DIST_CODE":"03420000","lon":-71.16423828412486,"lat":42.55580379571813},"geometry":{"type":"Point","coordinates":[-71.164238,42.555804]}},{"type":"Feature","properties":{"SCHID":"06180505","NAME":"Monument Mountain Regional High School","TOWN":"GREAT BARRINGTON","GRADES":"09,10,11,12","TYPE_DESC":"Public Secondary","DIST_NAME":"Berkshire Hills","DIST_CODE":"06180000","lon":-73.32851410375767,"lat":42.24915175350464},"geometry":{"type":"Point","coordinates":[-73.328514,42.249152]}},{"type":"Feature","properties":{"SCHID":"02360090","NAME":"Stearns School","TOWN":"PITTSFIELD","GRADES":"PK,K,01,02,03,04,05","TYPE_DESC":"Public Elementary","DIST_NAME":"Pittsfield","DIST_CODE":"02360000","lon":-73.29971939445186,"lat":42.43701948744101},"geometry":{"type":"Point","coordinates":[-73.299719,42.437019]}},{"type":"Feature","properties":{"SCHID":"00030305","NAME":"Albert F Ford Middle School","TOWN":"ACUSHNET","GRADES":"05,06,07,08","TYPE_DESC":"Public Middle","DIST_NAME":"Acushnet","DIST_CODE":"00030000","lon":-70.90540394068522,"lat":41.72426671806266},"geometry":{"type":"Point","coordinates":[-70.905404,41.724267]}},{"type":"Feature","properties":{"SCHID":"00080009","NAME":"Crocker Farm Elementary School","TOWN":"AMHERST","GRADES":"PK,K,01,02,03,04,05,06","TYPE_DESC":"Public Elementary","DIST_NAME":"Amherst","DIST_CODE":"00080000","lon":-72.51750842151675,"lat":42.34729531246738},"geometry":{"type":"Point","coordinates":[-72.517508,42.347295]}},{"type":"Feature","properties":{"SCHID":"04360305","NAME":"Community Charter School of Cambridge","TOWN":"CAMBRIDGE","GRADES":"06,07,08,09,10,11,12","TYPE_DESC":"Charter","DIST_NAME":"Community Charter School of Cambridge","DIST_CODE":"04360000","lon":-71.08515735910214,"lat":42.367698238709046},"geometry":{"type":"Point","coordinates":[-71.085157,42.367698]}},{"type":"Feature","properties":{"SCHID":"01600015","NAME":"Greenhalge School","TOWN":"LOWELL","GRADES":"PK,K,01,02,03,04","TYPE_DESC":"Public Elementary","DIST_NAME":"Lowell","DIST_CODE":"01600000","lon":-71.30918451545124,"lat":42.657387872015484},"geometry":{"type":"Point","coordinates":[-71.309185,42.657388]}},{"type":"Feature","properties":{"SCHID":"02840025","NAME":"Robin Hood School","TOWN":"STONEHAM","GRADES":"K,01,02,03,04","TYPE_DESC":"Public Elementary","DIST_NAME":"Stoneham","DIST_CODE":"02840000","lon":-71.10801337171024,"lat":42.4934476505539},"geometry":{"type":"Point","coordinates":[-71.108013,42.493448]}},{"type":"Feature","properties":{"SCHID":"02580505","NAME":"Salem High School","TOWN":"SALEM","GRADES":"09,10,11,12","TYPE_DESC":"Public Secondary","DIST_NAME":"Salem","DIST_CODE":"02580000","lon":-70.91122735838742,"lat":42.506530422713915},"geometry":{"type":"Point","coordinates":[-70.911227,42.50653]}},{"type":"Feature","properties":{"SCHID":"03230003","NAME":"Rose L Macdonald School","TOWN":"WEST BRIDGEWATER","GRADES":"01,02,03","TYPE_DESC":"Public Elementary","DIST_NAME":"West Bridgewater","DIST_CODE":"03230000","lon":-71.0285059765616,"lat":42.02362635704417},"geometry":{"type":"Point","coordinates":[-71.028506,42.023626]}},{"type":"Feature","properties":{"SCHID":"07750305","NAME":"Mountview Middle School","TOWN":"HOLDEN","GRADES":"06,07,08","TYPE_DESC":"Public Middle","DIST_NAME":"Wachusett","DIST_CODE":"07750000","lon":-71.8241118474301,"lat":42.334474623894955},"geometry":{"type":"Point","coordinates":[-71.824112,42.334475]}},{"type":"Feature","properties":{"SCHID":"00570025","NAME":"William A Berkowitz Elementary School","TOWN":"CHELSEA","GRADES":"01,02,03,04","TYPE_DESC":"Public Elementary","DIST_NAME":"Chelsea","DIST_CODE":"00570000","lon":-71.0190597817856,"lat":42.39937978673421},"geometry":{"type":"Point","coordinates":[-71.01906,42.39938]}},{"type":"Feature","properties":{"SCHID":"00570030","NAME":"Edgar A Hooks Elementary School","TOWN":"CHELSEA","GRADES":"01,02,03,04","TYPE_DESC":"Public Elementary","DIST_NAME":"Chelsea","DIST_CODE":"00570000","lon":-71.0190597817856,"lat":42.39937978673421},"geometry":{"type":"Point","coordinates":[-71.01906,42.39938]}},{"type":"Feature","properties":{"SCHID":"01810030","NAME":"Marsh Grammar School","TOWN":"METHUEN","GRADES":"K,01,02,03,04,05,06,07,08","TYPE_DESC":"Public Elementary","DIST_NAME":"Methuen","DIST_CODE":"01810000","lon":-71.23253338358957,"lat":42.729080197657545},"geometry":{"type":"Point","coordinates":[-71.232533,42.72908]}},{"type":"Feature","properties":{"SCHID":"07500006","NAME":"Bernardston Elementary School","TOWN":"BERNARDSTON","GRADES":"PK,K,01,02,03,04,05,06","TYPE_DESC":"Public Elementary","DIST_NAME":"Pioneer Valley","DIST_CODE":"07500000","lon":-72.56089321542426,"lat":42.66587833892447},"geometry":{"type":"Point","coordinates":[-72.560893,42.665878]}},{"type":"Feature","properties":{"SCHID":"03310030","NAME":"Westport Elementary School","TOWN":"WESTPORT","GRADES":"01,02,03,04","TYPE_DESC":"Public Elementary","DIST_NAME":"Westport","DIST_CODE":"03310000","lon":-71.06515204837078,"lat":41.62501049116092},"geometry":{"type":"Point","coordinates":[-71.065152,41.62501]}},{"type":"Feature","properties":{"SCHID":"00240018","NAME":"Swift River Elementary School","TOWN":"BELCHERTOWN","GRADES":"01,02,03","TYPE_DESC":"Public Elementary","DIST_NAME":"Belchertown","DIST_CODE":"00240000","lon":-72.41038741326474,"lat":42.26836281546635},"geometry":{"type":"Point","coordinates":[-72.410387,42.268363]}},{"type":"Feature","properties":{"SCHID":"02010410","NAME":"Normandin Middle School","TOWN":"NEW BEDFORD","GRADES":"06,07,08","TYPE_DESC":"Public Middle","DIST_NAME":"New Bedford","DIST_CODE":"02010000","lon":-70.92887025101784,"lat":41.680959907991905},"geometry":{"type":"Point","coordinates":[-70.92887,41.68096]}},{"type":"Feature","properties":{"SCHID":"06350035","NAME":"Kittredge School","TOWN":"HINSDALE","GRADES":"PK,K,01,02,03,04,05","TYPE_DESC":"Public Elementary","DIST_NAME":"Central Berkshire","DIST_CODE":"06350000","lon":-73.12242201538614,"lat":42.438381167555534},"geometry":{"type":"Point","coordinates":[-73.122422,42.438381]}},{"type":"Feature","properties":{"SCHID":"03250025","NAME":"Highland School","TOWN":"WESTFIELD","GRADES":"PK,K,01,02,03,04","TYPE_DESC":"Public Elementary","DIST_NAME":"Westfield","DIST_CODE":"03250000","lon":-72.7690374027498,"lat":42.11946051140499},"geometry":{"type":"Point","coordinates":[-72.769037,42.119461]}},{"type":"Feature","properties":{"SCHID":"02110018","NAME":"Annie L Sargent School","TOWN":"NORTH ANDOVER","GRADES":"01,02,03,04,05","TYPE_DESC":"Public Elementary","DIST_NAME":"North Andover","DIST_CODE":"02110000","lon":-71.09822747530939,"lat":42.67083823778484},"geometry":{"type":"Point","coordinates":[-71.098227,42.670838]}},{"type":"Feature","properties":{"SCHID":"03100505","NAME":"Wareham Senior High School","TOWN":"WAREHAM","GRADES":"08,09,10,11,12","TYPE_DESC":"Public Secondary","DIST_NAME":"Wareham","DIST_CODE":"03100000","lon":-70.71956187354881,"lat":41.75548375362176},"geometry":{"type":"Point","coordinates":[-70.719562,41.755484]}},{"type":"Feature","properties":{"SCHID":"03100305","NAME":"Wareham Middle School","TOWN":"WAREHAM","GRADES":"05,06,07","TYPE_DESC":"Public Middle","DIST_NAME":"Wareham","DIST_CODE":"03100000","lon":-70.72321838377431,"lat":41.75777930050923},"geometry":{"type":"Point","coordinates":[-70.723218,41.757779]}},{"type":"Feature","properties":{"SCHID":"02460017","NAME":"J. Warren Killam Elementary School","TOWN":"READING","GRADES":"K,01,02,03,04,05","TYPE_DESC":"Public Elementary","DIST_NAME":"Reading","DIST_CODE":"02460000","lon":-71.09011824234503,"lat":42.54121964205749},"geometry":{"type":"Point","coordinates":[-71.090118,42.54122]}},{"type":"Feature","properties":{"SCHID":"04140305","NAME":"Berkshire Arts and Technology Charter Public School","TOWN":"ADAMS","GRADES":"06,07,08,09,10,11,12","TYPE_DESC":"Charter","DIST_NAME":"Berkshire Arts and Technology Charter","DIST_CODE":"04140000","lon":-73.12119875188608,"lat":42.61958670034107},"geometry":{"type":"Point","coordinates":[-73.121199,42.619587]}},{"type":"Feature","properties":{"SCHID":"00050025","NAME":"William P. Sapelli Elementary School","TOWN":"AGAWAM","GRADES":"K,01,02,03,04","TYPE_DESC":"Public Elementary","DIST_NAME":"Agawam","DIST_CODE":"00050000","lon":-72.6421341964894,"lat":42.08991257179057},"geometry":{"type":"Point","coordinates":[-72.642134,42.089913]}},{"type":"Feature","properties":{"SCHID":"07750032","NAME":"Leroy E. Mayo School","TOWN":"HOLDEN","GRADES":"K,01,02,03,04,05","TYPE_DESC":"Public Elementary","DIST_NAME":"Wachusett","DIST_CODE":"07750000","lon":-71.82656125455493,"lat":42.34914223027141},"geometry":{"type":"Point","coordinates":[-71.826561,42.349142]}},{"type":"Feature","properties":{"SCHID":"02630010","NAME":"Emma L Miller Elementary School","TOWN":"SAVOY","GRADES":"PK,K,01,02,03,04,05,06","TYPE_DESC":"Public Elementary","DIST_NAME":"Savoy","DIST_CODE":"02630000","lon":-72.99516867295755,"lat":42.56945849784718},"geometry":{"type":"Point","coordinates":[-72.995169,42.569458]}},{"type":"Feature","properties":{"SCHID":"00480303","NAME":"Marshall Simonds Middle School","TOWN":"BURLINGTON","GRADES":"06,07,08","TYPE_DESC":"Public Middle","DIST_NAME":"Burlington","DIST_CODE":"00480000","lon":-71.1811089450985,"lat":42.50097126922715},"geometry":{"type":"Point","coordinates":[-71.181109,42.500971]}},{"type":"Feature","properties":{"SCHID":"02770010","NAME":"Eastford Road School","TOWN":"SOUTHBRIDGE","GRADES":"PK,K,01","TYPE_DESC":"Public Elementary","DIST_NAME":"Southbridge","DIST_CODE":"02770000","lon":-72.03966153144479,"lat":42.06775514147207},"geometry":{"type":"Point","coordinates":[-72.039662,42.067755]}},{"type":"Feature","properties":{"SCHID":"02010130","NAME":"Jireh Swift School","TOWN":"NEW BEDFORD","GRADES":"PK,K,01,02,03,04,05","TYPE_DESC":"Public Elementary","DIST_NAME":"New Bedford","DIST_CODE":"02010000","lon":-70.92290402624876,"lat":41.68247764189718},"geometry":{"type":"Point","coordinates":[-70.922904,41.682478]}},{"type":"Feature","properties":{"SCHID":"00160305","NAME":"Robert J. Coelho Middle School","TOWN":"ATTLEBORO","GRADES":"05,06,07,08","TYPE_DESC":"Public Middle","DIST_NAME":"Attleboro","DIST_CODE":"00160000","lon":-71.36884075925568,"lat":41.909944748344046},"geometry":{"type":"Point","coordinates":[-71.368841,41.909945]}},{"type":"Feature","properties":{"SCHID":"04180305","NAME":"Christa McAuliffe Charter School","TOWN":"FRAMINGHAM","GRADES":"06,07,08","TYPE_DESC":"Charter","DIST_NAME":"Christa McAuliffe Regional Charter","DIST_CODE":"04180000","lon":-71.3948388053194,"lat":42.308047849298646},"geometry":{"type":"Point","coordinates":[-71.394839,42.308048]}},{"type":"Feature","properties":{"SCHID":"01490027","NAME":"Parthum Middle School","TOWN":"LAWRENCE","GRADES":"05,06,07,08","TYPE_DESC":"Public Middle","DIST_NAME":"Lawrence","DIST_CODE":"01490000","lon":-71.14323118865791,"lat":42.718309550608716},"geometry":{"type":"Point","coordinates":[-71.143231,42.71831]}},{"type":"Feature","properties":{"SCHID":"02710035","NAME":"Spring Street School","TOWN":"SHREWSBURY","GRADES":"K,01,02,03,04","TYPE_DESC":"Public Elementary","DIST_NAME":"Shrewsbury","DIST_CODE":"02710000","lon":-71.70227891963495,"lat":42.30540366803305},"geometry":{"type":"Point","coordinates":[-71.702279,42.305404]}},{"type":"Feature","properties":{"SCHID":"01280054","NAME":"Pentucket Lake Elementary School","TOWN":"HAVERHILL","GRADES":"K,01,02,03,04,05","TYPE_DESC":"Public Elementary","DIST_NAME":"Haverhill","DIST_CODE":"01280000","lon":-71.07705394984892,"lat":42.796426610126005},"geometry":{"type":"Point","coordinates":[-71.077054,42.796427]}},{"type":"Feature","properties":{"SCHID":"02500005","NAME":"Rochester Memorial School","TOWN":"ROCHESTER","GRADES":"PK,K,01,02,03,04,05,06","TYPE_DESC":"Public Elementary","DIST_NAME":"Rochester","DIST_CODE":"02500000","lon":-70.86662455726724,"lat":41.74687625316374},"geometry":{"type":"Point","coordinates":[-70.866625,41.746876]}},{"type":"Feature","properties":{"SCHID":"00400050","NAME":"Donald Ross School","TOWN":"BRAINTREE","GRADES":"K,01,02,03,04","TYPE_DESC":"Public Elementary","DIST_NAME":"Braintree","DIST_CODE":"00400000","lon":-70.98693060742549,"lat":42.22874806525894},"geometry":{"type":"Point","coordinates":[-70.986931,42.228748]}},{"type":"Feature","properties":{"SCHID":"01640005","NAME":"Lynnfield Preschool","TOWN":"LYNNFIELD","GRADES":"PK","TYPE_DESC":"Public Elementary","DIST_NAME":"Lynnfield","DIST_CODE":"01640000","lon":-71.03954442113665,"lat":42.534146264676345},"geometry":{"type":"Point","coordinates":[-71.039544,42.534146]}},{"type":"Feature","properties":{"SCHID":"07750045","NAME":"Thomas Prince School","TOWN":"PRINCETON","GRADES":"K,01,02,03,04,05,06,07,08","TYPE_DESC":"Public Elementary","DIST_NAME":"Wachusett","DIST_CODE":"07750000","lon":-71.84396614213819,"lat":42.44237406678963},"geometry":{"type":"Point","coordinates":[-71.843966,42.442374]}},{"type":"Feature","properties":{"SCHID":"07450020","NAME":"Dr. Frederick N Sweetsir School","TOWN":"MERRIMAC","GRADES":"PK,K,01,02","TYPE_DESC":"Public Elementary","DIST_NAME":"Pentucket","DIST_CODE":"07450000","lon":-71.011820927185,"lat":42.84125669809502},"geometry":{"type":"Point","coordinates":[-71.011821,42.841257]}},{"type":"Feature","properties":{"SCHID":"00010020","NAME":"Beaver Brook Elementary School","TOWN":"ABINGTON","GRADES":"K,01,02","TYPE_DESC":"Public Elementary","DIST_NAME":"Abington","DIST_CODE":"00010000","lon":-70.94389650403653,"lat":42.11869955193827},"geometry":{"type":"Point","coordinates":[-70.943897,42.1187]}},{"type":"Feature","properties":{"SCHID":"00940505","NAME":"Fairhaven High School","TOWN":"FAIRHAVEN","GRADES":"09,10,11,12","TYPE_DESC":"Public Secondary","DIST_NAME":"Fairhaven","DIST_CODE":"00940000","lon":-70.90533223595891,"lat":41.64339987060872},"geometry":{"type":"Point","coordinates":[-70.905332,41.6434]}},{"type":"Feature","properties":{"SCHID":"02710020","NAME":"Floral Street School","TOWN":"SHREWSBURY","GRADES":"K,01,02,03,04","TYPE_DESC":"Public Elementary","DIST_NAME":"Shrewsbury","DIST_CODE":"02710000","lon":-71.69399578317899,"lat":42.28380820714742},"geometry":{"type":"Point","coordinates":[-71.693996,42.283808]}},{"type":"Feature","properties":{"SCHID":"00070010","NAME":"Charles C Cashman Elementary School","TOWN":"AMESBURY","GRADES":"03,04,05","TYPE_DESC":"Public Elementary","DIST_NAME":"Amesbury","DIST_CODE":"00070000","lon":-70.94929620461804,"lat":42.856790186683355},"geometry":{"type":"Point","coordinates":[-70.949296,42.85679]}},{"type":"Feature","properties":{"SCHID":"02360065","NAME":"Crosby School","TOWN":"PITTSFIELD","GRADES":"PK,K,01,02,03,04,05","TYPE_DESC":"Public Elementary","DIST_NAME":"Pittsfield","DIST_CODE":"02360000","lon":-73.27279240222454,"lat":42.44918404412451},"geometry":{"type":"Point","coordinates":[-73.272792,42.449184]}},{"type":"Feature","properties":{"SCHID":"00930015","NAME":"Webster School","TOWN":"EVERETT","GRADES":"K,01,02,03,04,05","TYPE_DESC":"Public Elementary","DIST_NAME":"Everett","DIST_CODE":"00930000","lon":-71.03898073907895,"lat":42.41250143703493},"geometry":{"type":"Point","coordinates":[-71.038981,42.412501]}},{"type":"Feature","properties":{"SCHID":"04870550","NAME":"Prospect Hill Academy Charter School","TOWN":"CAMBRIDGE","GRADES":"PK,K,01,02,03,04,05,06,07,08,09,10,11,12","TYPE_DESC":"Charter","DIST_NAME":"Prospect Hill Academy Charter","DIST_CODE":"04870000","lon":-71.10089938094934,"lat":42.367478749958636},"geometry":{"type":"Point","coordinates":[-71.100899,42.367479]}},{"type":"Feature","properties":{"SCHID":"01590305","NAME":"Williams Middle School","TOWN":"LONGMEADOW","GRADES":"06,07,08","TYPE_DESC":"Public Middle","DIST_NAME":"Longmeadow","DIST_CODE":"01590000","lon":-72.56607046460795,"lat":42.05295875511799},"geometry":{"type":"Point","coordinates":[-72.56607,42.052959]}},{"type":"Feature","properties":{"SCHID":"00950065","NAME":"William S Greene School","TOWN":"FALL RIVER","GRADES":"PK,K,01,02,03,04,05","TYPE_DESC":"Public Elementary","DIST_NAME":"Fall River","DIST_CODE":"00950000","lon":-71.15202214193228,"lat":41.68595769283736},"geometry":{"type":"Point","coordinates":[-71.152022,41.685958]}},{"type":"Feature","properties":{"SCHID":"01440007","NAME":"Paul F Doyon Memorial School","TOWN":"IPSWICH","GRADES":"PK,K,01,02,03,04,05","TYPE_DESC":"Public Elementary","DIST_NAME":"Ipswich","DIST_CODE":"01440000","lon":-70.88187288412034,"lat":42.68551064012054},"geometry":{"type":"Point","coordinates":[-70.881873,42.685511]}},{"type":"Feature","properties":{"SCHID":"00070505","NAME":"Amesbury High School","TOWN":"AMESBURY","GRADES":"09,10,11,12","TYPE_DESC":"Public Secondary","DIST_NAME":"Amesbury","DIST_CODE":"00070000","lon":-70.9422361211408,"lat":42.85092029946375},"geometry":{"type":"Point","coordinates":[-70.942236,42.85092]}},{"type":"Feature","properties":{"SCHID":"00940010","NAME":"East Fairhaven School","TOWN":"FAIRHAVEN","GRADES":"PK,K,01,02,03,04,05","TYPE_DESC":"Public Elementary","DIST_NAME":"Fairhaven","DIST_CODE":"00940000","lon":-70.8624529256725,"lat":41.6502022615467},"geometry":{"type":"Point","coordinates":[-70.862453,41.650202]}},{"type":"Feature","properties":{"SCHID":"06850005","NAME":"Hawlemont Regional School","TOWN":"CHARLEMONT","GRADES":"PK,K,01,02,03,04,05,06","TYPE_DESC":"Public Elementary","DIST_NAME":"Hawlemont","DIST_CODE":"06850000","lon":-72.87425947842627,"lat":42.62719281698024},"geometry":{"type":"Point","coordinates":[-72.874259,42.627193]}},{"type":"Feature","properties":{"SCHID":"00400015","NAME":"Highlands School","TOWN":"BRAINTREE","GRADES":"K,01,02,03,04","TYPE_DESC":"Public Elementary","DIST_NAME":"Braintree","DIST_CODE":"00400000","lon":-71.00542965053594,"lat":42.17764987125469},"geometry":{"type":"Point","coordinates":[-71.00543,42.17765]}},{"type":"Feature","properties":{"SCHID":"00050003","NAME":"Agawam Early Childhood Center","TOWN":"AGAWAM","GRADES":"PK","TYPE_DESC":"Public Elementary","DIST_NAME":"Agawam","DIST_CODE":"00050000","lon":-72.62616034544142,"lat":42.06728503071484},"geometry":{"type":"Point","coordinates":[-72.62616,42.067285]}},{"type":"Feature","properties":{"SCHID":"01140035","NAME":"Newton School","TOWN":"GREENFIELD","GRADES":"K,01,02,03,04","TYPE_DESC":"Public Elementary","DIST_NAME":"Greenfield","DIST_CODE":"01140000","lon":-72.61425168936061,"lat":42.585430235707406},"geometry":{"type":"Point","coordinates":[-72.614252,42.58543]}},{"type":"Feature","properties":{"SCHID":"01110505","NAME":"Granby Jr.-Sr. High School","TOWN":"GRANBY","GRADES":"07,08,09,10,11,12","TYPE_DESC":"Public Secondary","DIST_NAME":"Granby","DIST_CODE":"01110000","lon":-72.49365421970101,"lat":42.26472399090632},"geometry":{"type":"Point","coordinates":[-72.493654,42.264724]}},{"type":"Feature","properties":{"SCHID":"01030001","NAME":"Gardner Elementary School","TOWN":"GARDNER","GRADES":"PK,K,01,02,03,04","TYPE_DESC":"Public Elementary","DIST_NAME":"Gardner","DIST_CODE":"01030000","lon":-71.97146532495299,"lat":42.58454254730543},"geometry":{"type":"Point","coordinates":[-71.971465,42.584543]}},{"type":"Feature","properties":{"SCHID":"01890010","NAME":"Glover School","TOWN":"MILTON","GRADES":"K,01,02,03,04,05","TYPE_DESC":"Public Elementary","DIST_NAME":"Milton","DIST_CODE":"01890000","lon":-71.07546412549371,"lat":42.26145937580143},"geometry":{"type":"Point","coordinates":[-71.075464,42.261459]}},{"type":"Feature","properties":{"SCHID":"07450505","NAME":"Pentucket Regional Senior High School","TOWN":"WEST NEWBURY","GRADES":"09,10,11,12","TYPE_DESC":"Public Secondary","DIST_NAME":"Pentucket","DIST_CODE":"07450000","lon":-71.01439881057658,"lat":42.78331057426504},"geometry":{"type":"Point","coordinates":[-71.014399,42.783311]}},