{
"type": "FeatureCollection",
"name": "ma_public_schools",
"crs": { "type": "name", "properties": { "name": "urn:ogc:def:crs:OGC:1.3:CRS84" } },
"features": [
{ "type": "Feature", "properties": { "SCHID": "01490040", "NAME": "Francis M. Leahy School", "TOWN": "LAWRENCE", "GRADES": "PK,K,01,02,03,04", "TYPE_DESC": "Public Elementary", "DIST_NAME": "Lawrence", "DIST_CODE": "01490000", "lon": -71.161503371441739, "lat": 42.714655376726824 }, "geometry": { "type": "Point", "coordinates": [ -71.161503371441739, 42.714655376726824 ] } },
{ "type": "Feature", "properties": { "SCHID": "02480305", "NAME": "Susan B. Anthony Middle School", "TOWN": "REVERE", "GRADES": "06,07,08", "TYPE_DESC": "Public Middle", "DIST_NAME": "Revere", "DIST_CODE": "02480000", "lon": -71.02088410005048, "lat": 42.419797761085839 }, "geometry": { "type": "Point", "coordinates": [ -71.02088410005048, 42.419797761085839 ] } },
{ "type": "Feature", "properties": { "SCHID": "02180305", "NAME": "Norton Middle School", "TOWN": "NORTON", "GRADES": "06,07,08", "TYPE_DESC": "Public Middle", "DIST_NAME": "Norton", "DIST_CODE": "02180000", "lon": -71.213809787508495, "lat": 41.959884004116979 }, "geometry": { "type": "Point", "coordinates": [ -71.213809787508495, 41.959884004116979 ] } },
{ "type": "Feature", "properties": { "SCHID": "02720005", "NAME": "Shutesbury Elementary School", "TOWN": "SHUTESBURY", "GRADES": "PK,K,01,02,03,04,05,06", "TYPE_DESC": "Public Elementary", "DIST_NAME": "Shutesbury", "DIST_CODE": "02720000", "lon": -72.429872652928736, "lat": 42.448541143802437 }, "geometry": { "type": "Point", "coordinates": [ -72.429872652928736, 42.448541143802437 ] } },
{ "type": "Feature", "properties": { "SCHID": "06500005", "NAME": "Dighton Elementary School", "TOWN": "DIGHTON", "GRADES": "PK,K,01,02,03,04", "TYPE_DESC": "Public Elementary", "DIST_NAME": "Dighton-Rehoboth", "DIST_CODE": "06500000", "lon": -71.119362697410438, "lat": 41.835254896726816 }, "geometry": { "type": "Point", "coordinates": [ -71.119362697410438, 41.835254896726816 ] } },
{ "type": "Feature", "properties": { "SCHID": "02930008", "NAME": "Joseph C Chamberlain School", "TOWN": "TAUNTON", "GRADES": "PK,K,01,02,03,04", "TYPE_DESC": "Public Elementary", "DIST_NAME": "Taunton", "DIST_CODE": "02930000", "lon": -71.136324814345755, "lat": 41.918062406107538 }, "geometry": { "type": "Point", "coordinates": [ -71.136324814345755, 41.918062406107538 ] } },
{ "type": "Feature", "properties": { "SCHID": "03440045", "NAME": "Ambrose Elementary School", "TOWN": "WINCHESTER", "GRADES": "K,01,02,03,04,05", "TYPE_DESC": "Public Elementary", "DIST_NAME": "Winchester", "DIST_CODE": "03440000", "lon": -71.156147349428878, "lat": 42.445737402468815 }, "geometry": { "type": "Point", "coordinates": [ -71.156147349428878, 42.445737402468815 ] } },
{ "type": "Feature", "properties": { "SCHID": "02310003", "NAME": "Bryantville Elementary School", "TOWN": "PEMBROKE", "GRADES": "K,01,02,03,04,05,06", "TYPE_DESC": "Public Elementary", "DIST_NAME": "Pembroke", "DIST_CODE": "02310000", "lon": -70.823732357281543, "lat": 42.044395912651218 }, "geometry": { "type": "Point", "coordinates": [ -70.823732357281543, 42.044395912651218 ] } },
{ "type": "Feature", "properties": { "SCHID": "02290045", "NAME": "West Memorial School", "TOWN": "PEABODY", "GRADES": "PK,K,01,02,03,04,05", "TYPE_DESC": "Public Elementary", "DIST_NAME": "Peabody", "DIST_CODE": "02290000", "lon": -71.013511561032004, "lat": 42.548421044686719 }, "geometry": { "type": "Point", "coordinates": [ -71.013511561032004, 42.548421044686719 ] } },
{ "type": "Feature", "properties": { "SCHID": "06800050", "NAME": "Stony Hill School", "TOWN": "WILBRAHAM", "GRADES": "02,03", "TYPE_DESC": "Public Elementary", "DIST_NAME": "Hampden-Wilbraham", "DIST_CODE": "06800000", "lon": -72.456669347544008, "lat": 42.122807826043179 }, "geometry": { "type": "Point", "coordinates": [ -72.456669347544008, 42.122807826043179 ] } },
{ "type": "Feature", "properties": { "SCHID": "02290015", "NAME": "Center School", "TOWN": "PEABODY", "GRADES": "PK,K,01,02,03,04,05", "TYPE_DESC": "Public Elementary", "DIST_NAME": "Peabody", "DIST_CODE": "02290000", "lon": -70.944570400681513, "lat": 42.529537470173338 }, "geometry": { "type": "Point", "coordinates": [ -70.944570400681513, 42.529537470173338 ] } },
{ "type": "Feature", "properties": { "SCHID": "06740505", "NAME": "Turners Fall High School", "TOWN": "MONTAGUE", "GRADES": "09,10,11,12", "TYPE_DESC": "Public Secondary", "DIST_NAME": "Gill-Montague", "DIST_CODE": "06740000", "lon": -72.542905593221562, "lat": 42.587401810216605 }, "geometry": { "type": "Point", "coordinates": [ -72.542905593221562, 42.587401810216605 ] } },
{ "type": "Feature", "properties": { "SCHID": "02200020", "NAME": "John P Oldham School", "TOWN": "NORWOOD", "GRADES": "01,02,03,04", "TYPE_DESC": "Public Elementary", "DIST_NAME": "Norwood", "DIST_CODE": "02200000", "lon": -71.20482852798709, "lat": 42.204069665564319 }, "geometry": { "type": "Point", "coordinates": [ -71.20482852798709, 42.204069665564319 ] } },
{ "type": "Feature", "properties": { "SCHID": "03230305", "NAME": "Howard School", "TOWN": "WEST BRIDGEWATER", "GRADES": "04,05,06", "TYPE_DESC": "Public Elementary", "DIST_NAME": "West Bridgewater", "DIST_CODE": "03230000", "lon": -71.011497233458343, "lat": 42.019985445801133 }, "geometry": { "type": "Point", "coordinates": [ -71.011497233458343, 42.019985445801133 ] } },
{ "type": "Feature", "properties": { "SCHID": "00160320", "NAME": "Wamsutta Middle School", "TOWN": "ATTLEBORO", "GRADES": "05,06,07,08", "TYPE_DESC": "Public Middle", "DIST_NAME": "Attleboro", "DIST_CODE": "00160000", "lon": -71.28069754577956, "lat": 41.913288121394721 }, "geometry": { "type": "Point", "coordinates": [ -71.28069754577956, 41.913288121394721 ] } },
{ "type": "Feature", "properties": { "SCHID": "01220004", "NAME": "Cedar Elementary School", "TOWN": "HANOVER", "GRADES": "PK,K,01", "TYPE_DESC": "Public Elementary", "DIST_NAME": "Hanover", "DIST_CODE": "01220000", "lon": -70.867686729221731, "lat": 42.1321022833379 }, "geometry": { "type": "Point", "coordinates": [ -70.867686729221731, 42.1321022833379 ] } },
{ "type": "Feature", "properties": { "SCHID": "01000302", "NAME": "Cameron Middle School", "TOWN": "FRAMINGHAM", "GRADES": "06,07,08", "TYPE_DESC": "Public Middle", "DIST_NAME": "Framingham", "DIST_CODE": "01000000", "lon": -71.399943750017073, "lat": 42.333208486908326 }, "geometry": { "type": "Point", "coordinates": [ -71.399943750017073, 42.333208486908326 ] } },
{ "type": "Feature", "properties": { "SCHID": "02810205", "NAME": "The Springfield Renaissance School an Expeditionary Learning School", "TOWN": "SPRINGFIELD", "GRADES": "06,07,08,09,10,11,12", "TYPE_DESC": "Public Secondary", "DIST_NAME": "Springfield", "DIST_CODE": "02810000", "lon": -72.574013419418833, "lat": 42.132840419228373 }, "geometry": { "type": "Point", "coordinates": [ -72.574013419418833, 42.132840419228373 ] } },
{ "type": "Feature", "properties": { "SCHID": "01710010", "NAME": "South River School", "TOWN": "MARSHFIELD", "GRADES": "K,01,02,03,04,05", "TYPE_DESC": "Public Elementary", "DIST_NAME": "Marshfield", "DIST_CODE": "01710000", "lon": -70.715742615734598, "lat": 42.094941787720281 }, "geometry": { "type": "Point", "coordinates": [ -70.715742615734598, 42.094941787720281 ] } },
{ "type": "Feature", "properties": { "SCHID": "08780605", "NAME": "Tri-County Regional Vocational Technical", "TOWN": "FRANKLIN", "GRADES": "09,10,11,12", "TYPE_DESC": "Public Voc/Tech/Ag Reg'l HS", "DIST_NAME": "Tri County RVT", "DIST_CODE": "08780000", "lon": -71.421490076093846, "lat": 42.095009209171792 }, "geometry": { "type": "Point", "coordinates": [ -71.421490076093846, 42.095009209171792 ] } },
{ "type": "Feature", "properties": { "SCHID": "01490020", "NAME": "James F Hennessey School", "TOWN": "LAWRENCE", "GRADES": "PK,K,01,02", "TYPE_DESC": "Public Elementary", "DIST_NAME": "Lawrence", "DIST_CODE": "01490000", "lon": -71.177164533510961, "lat": 42.697040575243648 }, "geometry": { "type": "Point", "coordinates": [ -71.177164533510961, 42.697040575243648 ] } },
{ "type": "Feature", "properties": { "SCHID": "02010415", "NAME": "Roosevelt Middle School", "TOWN": "NEW BEDFORD", "GRADES": "06,07,08", "TYPE_DESC": "Public Middle", "DIST_NAME": "New Bedford", "DIST_CODE": "02010000", "lon": -70.910606681002491, "lat": 41.610290554362891 }, "geometry": { "type": "Point", "coordinates": [ -70.910606681002491, 41.610290554362891 ] } },
{ "type": "Feature", "properties": { "SCHID": "01140010", "NAME": "Federal Street School", "TOWN": "GREENFIELD", "GRADES": "K,01,02,03,04", "TYPE_DESC": "Public Elementary", "DIST_NAME": "Greenfield", "DIST_CODE": "01140000", "lon": -72.597702863651421, "lat": 42.591194326498567 }, "geometry": { "type": "Point", "coordinates": [ -72.597702863651421, 42.591194326498567 ] } },
{ "type": "Feature", "properties": { "SCHID": "02290010", "NAME": "Thomas Carroll School", "TOWN": "PEABODY", "GRADES": "PK,K,01,02,03,04,05", "TYPE_DESC": "Public Elementary", "DIST_NAME": "Peabody", "DIST_CODE": "02290000", "lon": -70.917638031618424, "lat": 42.532268688212355 }, "geometry": { "type": "Point", "coordinates": [ -70.917638031618424, 42.532268688212355 ] } },
{ "type": "Feature", "properties": { "SCHID": "04830305", "NAME": "Rising Tide Charter Public School", "TOWN": "PLYMOUTH", "GRADES": "05,06,07,08,09,10,11,12", "TYPE_DESC": "Charter", "DIST_NAME": "Rising Tide Charter", "DIST_CODE": "04830000", "lon": -70.696715164352483, "lat": 41.957266609818014 }, "geometry": { "type": "Point", "coordinates": [ -70.696715164352483, 41.957266609818014 ] } },
{ "type": "Feature", "properties": { "SCHID": "03260025", "NAME": "Col. John Robinson School", "TOWN": "WESTFORD", "GRADES": "PK,K,01,02", "TYPE_DESC": "Public Elementary", "DIST_NAME": "Westford", "DIST_CODE": "03260000", "lon": -71.464076974546188, "lat": 42.569896415902207 }, "geometry": { "type": "Point", "coordinates": [ -71.464076974546188, 42.569896415902207 ] } },
{ "type": "Feature", "properties": { "SCHID": "00570505", "NAME": "Chelsea High School", "TOWN": "CHELSEA", "GRADES": "09,10,11,12", "TYPE_DESC": "Public Secondary", "DIST_NAME": "Chelsea", "DIST_CODE": "00570000", "lon": -71.040054143764792, "lat": 42.400072557826881 }, "geometry": { "type": "Point", "coordinates": [ -71.040054143764792, 42.400072557826881 ] } },
{ "type": "Feature", "properties": { "SCHID": "01620505", "NAME": "Lunenburg High School", "TOWN": "LUNENBURG", "GRADES": "09,10,11,12", "TYPE_DESC": "Public Secondary", "DIST_NAME": "Lunenburg", "DIST_CODE": "01620000", "lon": -71.720417624071715, "lat": 42.599165303360628 }, "geometry": { "type": "Point", "coordinates": [ -71.720417624071715, 42.599165303360628 ] } },
{ "type": "Feature", "properties": { "SCHID": "02010115", "NAME": "John Avery Parker School", "TOWN": "NEW BEDFORD", "GRADES": "PK", "TYPE_DESC": "Public Elementary", "DIST_NAME": "New Bedford", "DIST_CODE": "02010000", "lon": -70.932108027737314, "lat": 41.644439384539325 }, "geometry": { "type": "Point", "coordinates": [ -70.932108027737314, 41.644439384539325 ] } },
{ "type": "Feature", "properties": { "SCHID": "01310410", "NAME": "Hingham Middle School", "TOWN": "HINGHAM", "GRADES": "06,07,08", "TYPE_DESC": "Public Middle", "DIST_NAME": "Hingham", "DIST_CODE": "01310000", "lon": -70.887949389821458, "lat": 42.18086406331031 }, "geometry": { "type": "Point", "coordinates": [ -70.887949389821458, 42.18086406331031 ] } },
{ "type": "Feature", "properties": { "SCHID": "02390011", "NAME": "Federal Furnace School", "TOWN": "PLYMOUTH", "GRADES": "K,01,02,03,04,05", "TYPE_DESC": "Public Elementary", "DIST_NAME": "Plymouth", "DIST_CODE": "02390000", "lon": -70.710804424872336, "lat": 41.892344770375402 }, "geometry": { "type": "Point", "coordinates": [ -70.710804424872336, 41.892344770375402 ] } },
{ "type": "Feature", "properties": { "SCHID": "00440078", "NAME": "Oscar F Raymond School", "TOWN": "BROCKTON", "GRADES": "K,01,02,03,04,05", "TYPE_DESC": "Public Elementary", "DIST_NAME": "Brockton", "DIST_CODE": "00440000", "lon": -71.031808126582618, "lat": 42.104365611857013 }, "geometry": { "type": "Point", "coordinates": [ -71.031808126582618, 42.104365611857013 ] } },
{ "type": "Feature", "properties": { "SCHID": "02170505", "NAME": "North Reading High School", "TOWN": "NORTH READING", "GRADES": "09,10,11,12", "TYPE_DESC": "Public Secondary", "DIST_NAME": "North Reading", "DIST_CODE": "02170000", "lon": -71.082939489161618, "lat": 42.57480651039414 }, "geometry": { "type": "Point", "coordinates": [ -71.082939489161618, 42.57480651039414 ] } },
{ "type": "Feature", "properties": { "SCHID": "00300010", "NAME": "Centerville Elementary School", "TOWN": "BEVERLY", "GRADES": "K,01,02,03,04", "TYPE_DESC": "Public Elementary", "DIST_NAME": "Beverly", "DIST_CODE": "00300000", "lon": -70.841881381519471, "lat": 42.57891805728049 }, "geometry": { "type": "Point", "coordinates": [ -70.841881381519471, 42.57891805728049 ] } },
{ "type": "Feature", "properties": { "SCHID": "01420015", "NAME": "Lillian M. Jacobs School", "TOWN": "HULL", "GRADES": "PK,K,01,02,03,04,05,06,07", "TYPE_DESC": "Public Elementary", "DIST_NAME": "Hull", "DIST_CODE": "01420000", "lon": -70.908873558665576, "lat": 42.306788117106578 }, "geometry": { "type": "Point", "coordinates": [ -70.908873558665576, 42.306788117106578 ] } },
{ "type": "Feature", "properties": { "SCHID": "02360100", "NAME": "Williams School", "TOWN": "PITTSFIELD", "GRADES": "PK,K,01,02,03,04,05", "TYPE_DESC": "Public Elementary", "DIST_NAME": "Pittsfield", "DIST_CODE": "02360000", "lon": -73.208700053001024, "lat": 42.434457028565781 }, "geometry": { "type": "Point", "coordinates": [ -73.208700053001024, 42.434457028565781 ] } },
{ "type": "Feature", "properties": { "SCHID": "01890505", "NAME": "Milton High School", "TOWN": "MILTON", "GRADES": "09,10,11,12", "TYPE_DESC": "Public Secondary", "DIST_NAME": "Milton", "DIST_CODE": "01890000", "lon": -71.087530216572347, "lat": 42.251366840530025 }, "geometry": { "type": "Point", "coordinates": [ -71.087530216572347, 42.251366840530025 ] } },
{ "type": "Feature", "properties": { "SCHID": "01500505", "NAME": "Lee Middle/High School", "TOWN": "LEE", "GRADES": "07,08,09,10,11,12", "TYPE_DESC": "Public Secondary", "DIST_NAME": "Lee", "DIST_CODE": "01500000", "lon": -73.239104005903926, "lat": 42.306749203182086 }, "geometry": { "type": "Point", "coordinates": [ -73.239104005903926, 42.306749203182086 ] } },
{ "type": "Feature", "properties": { "SCHID": "00870010", "NAME": "Mapleshade School", "TOWN": "EAST LONGMEADOW", "GRADES": "03,04,05", "TYPE_DESC": "Public Elementary", "DIST_NAME": "East Longmeadow", "DIST_CODE": "00870000", "lon": -72.508013410916845, "lat": 42.071319810865482 }, "geometry": { "type": "Point", "coordinates": [ -72.508013410916845, 42.071319810865482 ] } },
{ "type": "Feature", "properties": { "SCHID": "02340005", "NAME": "Petersham Center School", "TOWN": "PETERSHAM", "GRADES": "K,01,02,03,04,05,06", "TYPE_DESC": "Public Elementary", "DIST_NAME": "Petersham", "DIST_CODE": "02340000", "lon": -72.191755754777418, "lat": 42.484559135204798 }, "geometry": { "type": "Point", "coordinates": [ -72.191755754777418, 42.484559135204798 ] } },
{ "type": "Feature", "properties": { "SCHID": "04450105", "NAME": "Abby Kelley Foster Charter Public School", "TOWN": "WORCESTER", "GRADES": "K,01,02,03,04,05,06,07,08,09,10,11,12", "TYPE_DESC": "Charter", "DIST_NAME": "Abby Kelley Foster Charter", "DIST_CODE": "04450000", "lon": -71.80164017657134, "lat": 42.306330225432369 }, "geometry": { "type": "Point", "coordinates": [ -71.80164017657134, 42.306330225432369 ] } },
{ "type": "Feature", "properties": { "SCHID": "06580030", "NAME": "Heritage School", "TOWN": "CHARLTON", "GRADES": "02,03,04", "TYPE_DESC": "Public Elementary", "DIST_NAME": "Dudley-Charlton", "DIST_CODE": "06580000", "lon": -71.939337198176815, "lat": 42.130099213110398 }, "geometry": { "type": "Point", "coordinates": [ -71.939337198176815, 42.130099213110398 ] } },
{ "type": "Feature", "properties": { "SCHID": "00670005", "NAME": "Alcott School", "TOWN": "CONCORD", "GRADES": "PK,K,01,02,03,04,05", "TYPE_DESC": "Public Elementary", "DIST_NAME": "Concord", "DIST_CODE": "00670000", "lon": -71.345888948616491, "lat": 42.453283383076986 }, "geometry": { "type": "Point", "coordinates": [ -71.345888948616491, 42.453283383076986 ] } },
{ "type": "Feature", "properties": { "SCHID": "00730030", "NAME": "Oakdale School", "TOWN": "DEDHAM", "GRADES": "01,02,03,04,05", "TYPE_DESC": "Public Elementary", "DIST_NAME": "Dedham", "DIST_CODE": "00730000", "lon": -71.154206045223575, "lat": 42.23862402552615 }, "geometry": { "type": "Point", "coordinates": [ -71.154206045223575, 42.23862402552615 ] } },
{ "type": "Feature", "properties": { "SCHID": "02650505", "NAME": "Seekonk High School", "TOWN": "SEEKONK", "GRADES": "09,10,11,12", "TYPE_DESC": "Public Secondary", "DIST_NAME": "Seekonk", "DIST_CODE": "02650000", "lon": -71.332844135550857, "lat": 41.83550016098232 }, "geometry": { "type": "Point", "coordinates": [ -71.332844135550857, 41.83550016098232 ] } },
{ "type": "Feature", "properties": { "SCHID": "00870015", "NAME": "Mountain View School", "TOWN": "EAST LONGMEADOW", "GRADES": "03,04,05", "TYPE_DESC": "Public Elementary", "DIST_NAME": "East Longmeadow", "DIST_CODE": "00870000", "lon": -72.483360847735796, "lat": 42.051788646431547 }, "geometry": { "type": "Point", "coordinates": [ -72.483360847735796, 42.051788646431547 ] } },
{ "type": "Feature", "properties": { "SCHID": "02650007", "NAME": "George R Martin School", "TOWN": "SEEKONK", "GRADES": "K,01,02,03,04,05", "TYPE_DESC": "Public Elementary", "DIST_NAME": "Seekonk", "DIST_CODE": "02650000", "lon": -71.316980634488004, "lat": 41.797348036911139 }, "geometry": { "type": "Point", "coordinates": [ -71.316980634488004, 41.797348036911139 ] } },
{ "type": "Feature", "properties": { "SCHID": "03480423", "NAME": "Sullivan Middle School", "TOWN": "WORCESTER", "GRADES": "06,07,08", "TYPE_DESC": "Public Middle", "DIST_NAME": "Worcester", "DIST_CODE": "03480000", "lon": -71.862833361852083, "lat": 42.244167360444926 }, "geometry": { "type": "Point", "coordinates": [ -71.862833361852083, 42.244167360444926 ] } },
{ "type": "Feature", "properties": { "SCHID": "02360505", "NAME": "Pittsfield High School", "TOWN": "PITTSFIELD", "GRADES": "09,10,11,12", "TYPE_DESC": "Public Secondary", "DIST_NAME": "Pittsfield", "DIST_CODE": "02360000", "lon": -73.247735568800692, "lat": 42.446579138829755 }, "geometry": { "type": "Point", "coordinates": [ -73.247735568800692, 42.446579138829755 ] } },
{ "type": "Feature", "properties": { "SCHID": "01520505", "NAME": "Lenox Memorial High School", "TOWN": "LENOX", "GRADES": "06,07,08,09,10,11,12", "TYPE_DESC": "Public Secondary", "DIST_NAME": "Lenox", "DIST_CODE": "01520000", "lon": -73.259043883266401, "lat": 42.351680107682078 }, "geometry": { "type": "Point", "coordinates": [ -73.259043883266401, 42.351680107682078 ] } },
{ "type": "Feature", "properties": { "SCHID": "02100020", "NAME": "Jackson Street School", "TOWN": "NORTHAMPTON", "GRADES": "K,01,02,03,04,05", "TYPE_DESC": "Public Elementary", "DIST_NAME": "Northampton", "DIST_CODE": "02100000", "lon": -72.645025633126508, "lat": 42.334598984902655 }, "geometry": { "type": "Point", "coordinates": [ -72.645025633126508, 42.334598984902655 ] } },
{ "type": "Feature", "properties": { "SCHID": "02010050", "NAME": "John B Devalles School", "TOWN": "NEW BEDFORD", "GRADES": "K,01,02,03,04,05", "TYPE_DESC": "Public Elementary", "DIST_NAME": "New Bedford", "DIST_CODE": "02010000", "lon": -70.92845756560817, "lat": 41.618391402591705 }, "geometry": { "type": "Point", "coordinates": [ -70.92845756560817, 41.618391402591705 ] } },
{ "type": "Feature", "properties": { "SCHID": "00970505", "NAME": "Fitchburg High School", "TOWN": "FITCHBURG", "GRADES": "09,10,11,12", "TYPE_DESC": "Public Secondary", "DIST_NAME": "Fitchburg", "DIST_CODE": "00970000", "lon": -71.807525468983144, "lat": 42.621560923980127 }, "geometry": { "type": "Point", "coordinates": [ -71.807525468983144, 42.621560923980127 ] } },
{ "type": "Feature", "properties": { "SCHID": "03000005", "NAME": "Truro Central School", "TOWN": "TRURO", "GRADES": "PK,K,01,02,03,04,05,06", "TYPE_DESC": "Public Elementary", "DIST_NAME": "Truro", "DIST_CODE": "03000000", "lon": -70.071028977766161, "lat": 42.018172290158567 }, "geometry": { "type": "Point", "coordinates": [ -70.071028977766161, 42.018172290158567 ] } },
{ "type": "Feature", "properties": { "SCHID": "01740505", "NAME": "Maynard High School", "TOWN": "MAYNARD", "GRADES": "09,10,11,12", "TYPE_DESC": "Public Secondary", "DIST_NAME": "Maynard", "DIST_CODE": "01740000", "lon": -71.450966268832971, "lat": 42.422231687872248 }, "geometry": { "type": "Point", "coordinates": [ -71.450966268832971, 42.422231687872248 ] } },
{ "type": "Feature", "properties": { "SCHID": "01280100", "NAME": "Consentino Middle School", "TOWN": "HAVERHILL", "GRADES": "05,06,07,08", "TYPE_DESC": "Public Middle", "DIST_NAME": "Haverhill", "DIST_CODE": "01280000", "lon": -71.102385443281193, "lat": 42.769643386743049 }, "geometry": { "type": "Point", "coordinates": [ -71.102385443281193, 42.769643386743049 ] } },
{ "type": "Feature", "properties": { "SCHID": "04460550", "NAME": "Foxborough Regional Charter School", "TOWN": "FOXBOROUGH", "GRADES": "K,01,02,03,04,05,06,07,08,09,10,11,12", "TYPE_DESC": "Charter", "DIST_NAME": "Foxborough Regional Charter", "DIST_CODE": "04460000", "lon": -71.244781466304303, "lat": 42.056868928313293 }, "geometry": { "type": "Point", "coordinates": [ -71.244781466304303, 42.056868928313293 ] } },
{ "type": "Feature", "properties": { "SCHID": "06580310", "NAME": "Charlton Middle School", "TOWN": "CHARLTON", "GRADES": "05,06,07,08", "TYPE_DESC": "Public Middle", "DIST_NAME": "Dudley-Charlton", "DIST_CODE": "06580000", "lon": -71.939417752855391, "lat": 42.128451699510649 }, "geometry": { "type": "Point", "coordinates": [ -71.939417752855391, 42.128451699510649 ] } },
{ "type": "Feature", "properties": { "SCHID": "00610505", "NAME": "Chicopee High School", "TOWN": "CHICOPEE", "GRADES": "09,10,11,12", "TYPE_DESC": "Public Secondary", "DIST_NAME": "Chicopee", "DIST_CODE": "00610000", "lon": -72.585032708346517, "lat": 42.14859438589415 }, "geometry": { "type": "Point", "coordinates": [ -72.585032708346517, 42.14859438589415 ] } },
{ "type": "Feature", "properties": { "SCHID": "01590505", "NAME": "Longmeadow High School", "TOWN": "LONGMEADOW", "GRADES": "09,10,11,12", "TYPE_DESC": "Public Secondary", "DIST_NAME": "Longmeadow", "DIST_CODE": "01590000", "lon": -72.559657727029091, "lat": 42.055201239290241 }, "geometry": { "type": "Point", "coordinates": [ -72.559657727029091, 42.055201239290241 ] } },
{ "type": "Feature", "properties": { "SCHID": "02920020", "NAME": "Joseph G Luther School", "TOWN": "SWANSEA", "GRADES": "03,04,05", "TYPE_DESC": "Public Elementary", "DIST_NAME": "Swansea", "DIST_CODE": "02920000", "lon": -71.222705885760362, "lat": 41.742556630400728 }, "geometry": { "type": "Point", "coordinates": [ -71.222705885760362, 41.742556630400728 ] } },
{ "type": "Feature", "properties": { "SCHID": "01140005", "NAME": "The Academy of Early Learning at North Parish", "TOWN": "GREENFIELD", "GRADES": "PK", "TYPE_DESC": "Public Elementary", "DIST_NAME": "Greenfield", "DIST_CODE": "01140000", "lon": -72.611115745063259, "lat": 42.605570618248002 }, "geometry": { "type": "Point", "coordinates": [ -72.611115745063259, 42.605570618248002 ] } },
{ "type": "Feature", "properties": { "SCHID": "04580505", "NAME": "Lowell Middlesex Academy Charter School", "TOWN": "LOWELL", "GRADES": "09,10,11,12", "TYPE_DESC": "Charter", "DIST_NAME": "Lowell Middlesex Academy Charter", "DIST_CODE": "04580000", "lon": -71.309702447723851, "lat": 42.64520825698871 }, "geometry": { "type": "Point", "coordinates": [ -71.309702447723851, 42.64520825698871 ] } },
{ "type": "Feature", "properties": { "SCHID": "04920005", "NAME": "Martin Luther King, Jr. Charter School of Excellence", "TOWN": "SPRINGFIELD", "GRADES": "K,01,02,03,04,05", "TYPE_DESC": "Charter", "DIST_NAME": "Martin Luther King Jr. Charter School of Excellence", "DIST_CODE": "04920000", "lon": -72.536140188827588, "lat": 42.083954222728963 }, "geometry": { "type": "Point", "coordinates": [ -72.536140188827588, 42.083954222728963 ] } },
{ "type": "Feature", "properties": { "SCHID": "01050005", "NAME": "Perley Elementary School", "TOWN": "GEORGETOWN", "GRADES": "PK", "TYPE_DESC": "Public Elementary", "DIST_NAME": "Georgetown", "DIST_CODE": "01050000", "lon": -70.988594974870594, "lat": 42.726247128686765 }, "geometry": { "type": "Point", "coordinates": [ -70.988594974870594, 42.726247128686765 ] } },
{ "type": "Feature", "properties": { "SCHID": "02920505", "NAME": "Joseph Case High School", "TOWN": "SWANSEA", "GRADES": "09,10,11,12", "TYPE_DESC": "Public Secondary", "DIST_NAME": "Swansea", "DIST_CODE": "02920000", "lon": -71.201234730571159, "lat": 41.754151392922694 }, "geometry": { "type": "Point", "coordinates": [ -71.201234730571159, 41.754151392922694 ] } },
{ "type": "Feature", "properties": { "SCHID": "02920015", "NAME": "Gardner School", "TOWN": "SWANSEA", "GRADES": "K,01,02", "TYPE_DESC": "Public Elementary", "DIST_NAME": "Swansea", "DIST_CODE": "02920000", "lon": -71.202851272674636, "lat": 41.724824394766237 }, "geometry": { "type": "Point", "coordinates": [ -71.202851272674636, 41.724824394766237 ] } },
{ "type": "Feature", "properties": { "SCHID": "00930038", "NAME": "Lafayette School", "TOWN": "EVERETT", "GRADES": "K,01,02,03,04,05,06,07,08", "TYPE_DESC": "Public Elementary", "DIST_NAME": "Everett", "DIST_CODE": "00930000", "lon": -71.051005783155915, "lat": 42.421961362620308 }, "geometry": { "type": "Point", "coordinates": [ -71.051005783155915, 42.421961362620308 ] } },
{ "type": "Feature", "properties": { "SCHID": "03070002", "NAME": "Daniel Feeney Preschool Center", "TOWN": "WALPOLE", "GRADES": "PK", "TYPE_DESC": "Public Elementary", "DIST_NAME": "Walpole", "DIST_CODE": "03070000", "lon": -71.267899936626137, "lat": 42.153814282597374 }, "geometry": { "type": "Point", "coordinates": [ -71.267899936626137, 42.153814282597374 ] } },
{ "type": "Feature", "properties": { "SCHID": "06740310", "NAME": "Great Falls Middle School", "TOWN": "MONTAGUE", "GRADES": "06,07,08", "TYPE_DESC": "Public Middle", "DIST_NAME": "Gill-Montague", "DIST_CODE": "06740000", "lon": -72.542905593221562, "lat": 42.587401810216605 }, "geometry": { "type": "Point", "coordinates": [ -72.542905593221562, 42.587401810216605 ] } },
{ "type": "Feature", "properties": { "SCHID": "03090020", "NAME": "Stanley M Koziol Elementary School", "TOWN": "WARE", "GRADES": "PK,K,01,02,03", "TYPE_DESC": "Public Elementary", "DIST_NAME": "Ware", "DIST_CODE": "03090000", "lon": -72.262204878247118, "lat": 42.253447843481382 }, "geometry": { "type": "Point", "coordinates": [ -72.262204878247118, 42.253447843481382 ] } },
{ "type": "Feature", "properties": { "SCHID": "06220010", "NAME": "Millville Elementary School", "TOWN": "MILLVILLE", "GRADES": "K,01,02,03", "TYPE_DESC": "Public Elementary", "DIST_NAME": "Blackstone-Millville", "DIST_CODE": "06220000", "lon": -71.57806983867053, "lat": 42.032485147717708 }, "geometry": { "type": "Point", "coordinates": [ -71.57806983867053, 42.032485147717708 ] } },
{ "type": "Feature", "properties": { "SCHID": "04560050", "NAME": "Lowell Community Charter Public School", "TOWN": "LOWELL", "GRADES": "PK,K,01,02,03,04,05,06,07,08", "TYPE_DESC": "Charter", "DIST_NAME": "Lowell Community Charter", "DIST_CODE": "04560000", "lon": -71.312123576892517, "lat": 42.641341422967706 }, "geometry": { "type": "Point", "coordinates": [ -71.312123576892517, 42.641341422967706 ] } },
{ "type": "Feature", "properties": { "SCHID": "02390005", "NAME": "Cold Spring School", "TOWN": "PLYMOUTH", "GRADES": "K,01,02,03,04,05", "TYPE_DESC": "Public Elementary", "DIST_NAME": "Plymouth", "DIST_CODE": "02390000", "lon": -70.677924007101311, "lat": 41.962657679907061 }, "geometry": { "type": "Point", "coordinates": [ -70.677924007101311, 41.962657679907061 ] } },
{ "type": "Feature", "properties": { "SCHID": "03180005", "NAME": "Wellfleet Elementary School", "TOWN": "WELLFLEET", "GRADES": "K,01,02,03,04,05", "TYPE_DESC": "Public Elementary", "DIST_NAME": "Wellfleet", "DIST_CODE": "03180000", "lon": -70.022520792021567, "lat": 41.941457302860165 }, "geometry": { "type": "Point", "coordinates": [ -70.022520792021567, 41.941457302860165 ] } },
{ "type": "Feature", "properties": { "SCHID": "00080050", "NAME": "Wildwood Elementary School", "TOWN": "AMHERST", "GRADES": "K,01,02,03,04,05,06", "TYPE_DESC": "Public Elementary", "DIST_NAME": "Amherst", "DIST_CODE": "00080000", "lon": -72.51310011723784, "lat": 42.387305235447293 }, "geometry": { "type": "Point", "coordinates": [ -72.51310011723784, 42.387305235447293 ] } },
{ "type": "Feature", "properties": { "SCHID": "06980020", "NAME": "Essex Elementary School", "TOWN": "ESSEX", "GRADES": "K,01,02,03,04,05", "TYPE_DESC": "Public Elementary", "DIST_NAME": "Manchester Essex", "DIST_CODE": "06980000", "lon": -70.789971478456692, "lat": 42.631823299462567 }, "geometry": { "type": "Point", "coordinates": [ -70.789971478456692, 42.631823299462567 ] } },
{ "type": "Feature", "properties": { "SCHID": "00870305", "NAME": "Birchland Park School", "TOWN": "EAST LONGMEADOW", "GRADES": "06,07,08", "TYPE_DESC": "Public Middle", "DIST_NAME": "East Longmeadow", "DIST_CODE": "00870000", "lon": -72.506901294589966, "lat": 42.072791296362354 }, "geometry": { "type": "Point", "coordinates": [ -72.506901294589966, 42.072791296362354 ] } },
{ "type": "Feature", "properties": { "SCHID": "01500025", "NAME": "Lee Elementary School", "TOWN": "LEE", "GRADES": "PK,K,01,02,03,04,05,06", "TYPE_DESC": "Public Elementary", "DIST_NAME": "Lee", "DIST_CODE": "01500000", "lon": -73.236448946522401, "lat": 42.306932809901184 }, "geometry": { "type": "Point", "coordinates": [ -73.236448946522401, 42.306932809901184 ] } },
{ "type": "Feature", "properties": { "SCHID": "04530005", "NAME": "Holyoke Community Charter School", "TOWN": "HOLYOKE", "GRADES": "K,01,02,03,04,05,06,07,08", "TYPE_DESC": "Charter", "DIST_NAME": "Holyoke Community Charter", "DIST_CODE": "04530000", "lon": -72.628545826768374, "lat": 42.185768799779687 }, "geometry": { "type": "Point", "coordinates": [ -72.628545826768374, 42.185768799779687 ] } },
{ "type": "Feature", "properties": { "SCHID": "01270005", "NAME": "Hatfield Elementary School", "TOWN": "HATFIELD", "GRADES": "PK,K,01,02,03,04,05", "TYPE_DESC": "Public Elementary", "DIST_NAME": "Hatfield", "DIST_CODE": "01270000", "lon": -72.600025077713923, "lat": 42.36986990385941 }, "geometry": { "type": "Point", "coordinates": [ -72.600025077713923, 42.36986990385941 ] } },
{ "type": "Feature", "properties": { "SCHID": "02110010", "NAME": "Franklin School", "TOWN": "NORTH ANDOVER", "GRADES": "01,02,03,04,05", "TYPE_DESC": "Public Elementary", "DIST_NAME": "North Andover", "DIST_CODE": "02110000", "lon": -71.119484982155114, "lat": 42.676497891875997 }, "geometry": { "type": "Point", "coordinates": [ -71.119484982155114, 42.676497891875997 ] } },
{ "type": "Feature", "properties": { "SCHID": "02360510", "NAME": "Taconic High School", "TOWN": "PITTSFIELD", "GRADES": "09,10,11,12", "TYPE_DESC": "Public Secondary", "DIST_NAME": "Pittsfield", "DIST_CODE": "02360000", "lon": -73.273810912812422, "lat": 42.459857477612452 }, "geometry": { "type": "Point", "coordinates": [ -73.273810912812422, 42.459857477612452 ] } },
{ "type": "Feature", "properties": { "SCHID": "02360105", "NAME": "Silvio O Conte Community School", "TOWN": "PITTSFIELD", "GRADES": "PK,K,01,02,03,04,05", "TYPE_DESC": "Public Elementary", "DIST_NAME": "Pittsfield", "DIST_CODE": "02360000", "lon": -73.268434551178601, "lat": 42.455660777491573 }, "geometry": { "type": "Point", "coordinates": [ -73.268434551178601, 42.455660777491573 ] } },
{ "type": "Feature", "properties": { "SCHID": "06800310", "NAME": "Wilbraham Middle School", "TOWN": "WILBRAHAM", "GRADES": "06,07,08", "TYPE_DESC": "Public Middle", "DIST_NAME": "Hampden-Wilbraham", "DIST_CODE": "06800000", "lon": -72.457810829004202, "lat": 42.133352438672333 }, "geometry": { "type": "Point", "coordinates": [ -72.457810829004202, 42.133352438672333 ] } },
{ "type": "Feature", "properties": { "SCHID": "00050020", "NAME": "Benjamin J Phelps School", "TOWN": "AGAWAM", "GRADES": "K,01,02,03,04", "TYPE_DESC": "Public Elementary", "DIST_NAME": "Agawam", "DIST_CODE": "00050000", "lon": -72.613182127089729, "lat": 42.070448643269891 }, "geometry": { "type": "Point", "coordinates": [ -72.613182127089729, 42.070448643269891 ] } },
{ "type": "Feature", "properties": { "SCHID": "02460305", "NAME": "Arthur W Coolidge Middle School", "TOWN": "READING", "GRADES": "06,07,08", "TYPE_DESC": "Public Middle", "DIST_NAME": "Reading", "DIST_CODE": "02460000", "lon": -71.10991140238383, "lat": 42.538242763898452 }, "geometry": { "type": "Point", "coordinates": [ -71.10991140238383, 42.538242763898452 ] } },
{ "type": "Feature", "properties": { "SCHID": "01600330", "NAME": "Henry J Robinson Middle School", "TOWN": "LOWELL", "GRADES": "05,06,07,08", "TYPE_DESC": "Public Middle", "DIST_NAME": "Lowell", "DIST_CODE": "01600000", "lon": -71.301997997831521, "lat": 42.659482741518786 }, "geometry": { "type": "Point", "coordinates": [ -71.301997997831521, 42.659482741518786 ] } },
{ "type": "Feature", "properties": { "SCHID": "01530005", "NAME": "Lincoln School", "TOWN": "LEOMINSTER", "GRADES": "PK", "TYPE_DESC": "Public Elementary", "DIST_NAME": "Leominster", "DIST_CODE": "01530000", "lon": -71.768782545688836, "lat": 42.494234899594446 }, "geometry": { "type": "Point", "coordinates": [ -71.768782545688836, 42.494234899594446 ] } },
{ "type": "Feature", "properties": { "SCHID": "06350505", "NAME": "Wahconah Regional High School", "TOWN": "DALTON", "GRADES": "09,10,11,12", "TYPE_DESC": "Public Secondary", "DIST_NAME": "Central Berkshire", "DIST_CODE": "06350000", "lon": -73.139125859984517, "lat": 42.470750610527084 }, "geometry": { "type": "Point", "coordinates": [ -73.139125859984517, 42.470750610527084 ] } },
{ "type": "Feature", "properties": { "SCHID": "03500003", "NAME": "Delaney School", "TOWN": "WRENTHAM", "GRADES": "PK,K,01,02,03", "TYPE_DESC": "Public Elementary", "DIST_NAME": "Wrentham", "DIST_CODE": "03500000", "lon": -71.327058505952564, "lat": 42.060863894644292 }, "geometry": { "type": "Point", "coordinates": [ -71.327058505952564, 42.060863894644292 ] } },
{ "type": "Feature", "properties": { "SCHID": "01420505", "NAME": "Hull High School", "TOWN": "HULL", "GRADES": "08,09,10,11,12", "TYPE_DESC": "Public Secondary", "DIST_NAME": "Hull", "DIST_CODE": "01420000", "lon": -70.920309580120659, "lat": 42.304195695606808 }, "geometry": { "type": "Point", "coordinates": [ -70.920309580120659, 42.304195695606808 ] } },
{ "type": "Feature", "properties": { "SCHID": "02010095", "NAME": "Abraham Lincoln School", "TOWN": "NEW BEDFORD", "GRADES": "K,01,02,03,04,05", "TYPE_DESC": "Public Elementary", "DIST_NAME": "New Bedford", "DIST_CODE": "02010000", "lon": -70.933291719045542, "lat": 41.669073276400624 }, "geometry": { "type": "Point", "coordinates": [ -70.933291719045542, 41.669073276400624 ] } },
{ "type": "Feature", "properties": { "SCHID": "07800315", "NAME": "Hanson Middle School", "TOWN": "HANSON", "GRADES": "05,06,07,08", "TYPE_DESC": "Public Middle", "DIST_NAME": "Whitman-Hanson", "DIST_CODE": "07800000", "lon": -70.873897972920957, "lat": 42.076766383697468 }, "geometry": { "type": "Point", "coordinates": [ -70.873897972920957, 42.076766383697468 ] } },
{ "type": "Feature", "properties": { "SCHID": "03250505", "NAME": "Westfield High School", "TOWN": "WESTFIELD", "GRADES": "09,10,11,12", "TYPE_DESC": "Public Secondary", "DIST_NAME": "Westfield", "DIST_CODE": "03250000", "lon": -72.753774257977582, "lat": 42.147226959639859 }, "geometry": { "type": "Point", "coordinates": [ -72.753774257977582, 42.147226959639859 ] } },
{ "type": "Feature", "properties": { "SCHID": "02010135", "NAME": "William H Taylor School", "TOWN": "NEW BEDFORD", "GRADES": "PK,K,01,02,03,04,05", "TYPE_DESC": "Public Elementary", "DIST_NAME": "New Bedford", "DIST_CODE": "02010000", "lon": -70.905454242387577, "lat": 41.599654045384639 }, "geometry": { "type": "Point", "coordinates": [ -70.905454242387577, 41.599654045384639 ] } },
{ "type": "Feature", "properties": { "SCHID": "01590005", "NAME": "Blueberry Hill School", "TOWN": "LONGMEADOW", "GRADES": "K,01,02,03,04,05", "TYPE_DESC": "Public Elementary", "DIST_NAME": "Longmeadow", "DIST_CODE": "01590000", "lon": -72.559405483900065, "lat": 42.059232420115762 }, "geometry": { "type": "Point", "coordinates": [ -72.559405483900065, 42.059232420115762 ] } },
{ "type": "Feature", "properties": { "SCHID": "06100505", "NAME": "Oakmont Regional High School", "TOWN": "ASHBURNHAM", "GRADES": "09,10,11,12", "TYPE_DESC": "Public Secondary", "DIST_NAME": "Ashburnham-Westminster", "DIST_CODE": "06100000", "lon": -71.922640554600449, "lat": 42.604264154861809 }, "geometry": { "type": "Point", "coordinates": [ -71.922640554600449, 42.604264154861809 ] } },
{ "type": "Feature", "properties": { "SCHID": "00090003", "NAME": "Bancroft Elementary School", "TOWN": "ANDOVER", "GRADES": "K,01,02,03,04,05", "TYPE_DESC": "Public Elementary", "DIST_NAME": "Andover", "DIST_CODE": "00090000", "lon": -71.126197623847702, "lat": 42.637958242056555 }, "geometry": { "type": "Point", "coordinates": [ -71.126197623847702, 42.637958242056555 ] } },
{ "type": "Feature", "properties": { "SCHID": "00860505", "NAME": "Easthampton High School", "TOWN": "EASTHAMPTON", "GRADES": "09,10,11,12", "TYPE_DESC": "Public Secondary", "DIST_NAME": "Easthampton", "DIST_CODE": "00860000", "lon": -72.671375332255053, "lat": 42.260522879450917 }, "geometry": { "type": "Point", "coordinates": [ -72.671375332255053, 42.260522879450917 ] } },
{ "type": "Feature", "properties": { "SCHID": "03360003", "NAME": "Weymouth Early Childhood Center", "TOWN": "WEYMOUTH", "GRADES": "PK", "TYPE_DESC": "Public Elementary", "DIST_NAME": "Weymouth", "DIST_CODE": "03360000", "lon": -70.939878924961661, "lat": 42.220890764270145 }, "geometry": { "type": "Point", "coordinates": [ -70.939878924961661, 42.220890764270145 ] } },
{ "type": "Feature", "properties": { "SCHID": "01070305", "NAME": "Ralph B O'Maley Middle School", "TOWN": "GLOUCESTER", "GRADES": "06,07,08", "TYPE_DESC": "Public Middle", "DIST_NAME": "Gloucester", "DIST_CODE": "01070000", "lon": -70.672654878241161, "lat": 42.629739107543124 }, "geometry": { "type": "Point", "coordinates": [ -70.672654878241161, 42.629739107543124 ] } },
{ "type": "Feature", "properties": { "SCHID": "02620305", "NAME": "Saugus Middle School", "TOWN": "SAUGUS", "GRADES": "06,07,08", "TYPE_DESC": "Public Middle", "DIST_NAME": "Saugus", "DIST_CODE": "02620000", "lon": -71.023889488775112, "lat": 42.462912213566177 }, "geometry": { "type": "Point", "coordinates": [ -71.023889488775112, 42.462912213566177 ] } },
{ "type": "Feature", "properties": { "SCHID": "02430060", "NAME": "Merrymount School", "TOWN": "QUINCY", "GRADES": "K,01,02,03,04,05", "TYPE_DESC": "Public Elementary", "DIST_NAME": "Quincy", "DIST_CODE": "02430000", "lon": -70.993112636523009, "lat": 42.265025154557904 }, "geometry": { "type": "Point", "coordinates": [ -70.993112636523009, 42.265025154557904 ] } },
{ "type": "Feature", "properties": { "SCHID": "00070515", "NAME": "Amesbury Innovation High School", "TOWN": "AMESBURY", "GRADES": "09,10,11,12", "TYPE_DESC": "Public Secondary", "DIST_NAME": "Amesbury", "DIST_CODE": "00070000", "lon": -70.934666039116124, "lat": 42.856479570778305 }, "geometry": { "type": "Point", "coordinates": [ -70.934666039116124, 42.856479570778305 ] } },
{ "type": "Feature", "properties": { "SCHID": "01140305", "NAME": "Greenfield Middle School", "TOWN": "GREENFIELD", "GRADES": "05,06,07", "TYPE_DESC": "Public Middle", "DIST_NAME": "Greenfield", "DIST_CODE": "01140000", "lon": -72.596337790519968, "lat": 42.595678416227734 }, "geometry": { "type": "Point", "coordinates": [ -72.596337790519968, 42.595678416227734 ] } },
{ "type": "Feature", "properties": { "SCHID": "01280080", "NAME": "Walnut Square School", "TOWN": "HAVERHILL", "GRADES": "K,01,02,03", "TYPE_DESC": "Public Elementary", "DIST_NAME": "Haverhill", "DIST_CODE": "01280000", "lon": -71.083482729655557, "lat": 42.793703168153364 }, "geometry": { "type": "Point", "coordinates": [ -71.083482729655557, 42.793703168153364 ] } },
{ "type": "Feature", "properties": { "SCHID": "02040005", "NAME": "Francis T Bresnahan Elementary School", "TOWN": "NEWBURYPORT", "GRADES": "PK,K,01,02,03", "TYPE_DESC": "Public Elementary", "DIST_NAME": "Newburyport", "DIST_CODE": "02040000", "lon": -70.897011348493223, "lat": 42.819413382155957 }, "geometry": { "type": "Point", "coordinates": [ -70.897011348493223, 42.819413382155957 ] } },
{ "type": "Feature", "properties": { "SCHID": "00400005", "NAME": "Hollis School", "TOWN": "BRAINTREE", "GRADES": "K,01,02,03,04", "TYPE_DESC": "Public Elementary", "DIST_NAME": "Braintree", "DIST_CODE": "00400000", "lon": -71.002552551215629, "lat": 42.215764078156155 }, "geometry": { "type": "Point", "coordinates": [ -71.002552551215629, 42.215764078156155 ] } },
{ "type": "Feature", "properties": { "SCHID": "01170505", "NAME": "Hopkins Academy", "TOWN": "HADLEY", "GRADES": "07,08,09,10,11,12", "TYPE_DESC": "Public Secondary", "DIST_NAME": "Hadley", "DIST_CODE": "01170000", "lon": -72.591642882969211, "lat": 42.341207715659756 }, "geometry": { "type": "Point", "coordinates": [ -72.591642882969211, 42.341207715659756 ] } },
{ "type": "Feature", "properties": { "SCHID": "00070013", "NAME": "Amesbury Middle School", "TOWN": "AMESBURY", "GRADES": "06,07,08", "TYPE_DESC": "Public Middle", "DIST_NAME": "Amesbury", "DIST_CODE": "00070000", "lon": -70.92952120658515, "lat": 42.848882936742413 }, "geometry": { "type": "Point", "coordinates": [ -70.92952120658515, 42.848882936742413 ] } },
{ "type": "Feature", "properties": { "SCHID": "00160040", "NAME": "Hyman Fine Elementary School", "TOWN": "ATTLEBORO", "GRADES": "K,01,02,03,04", "TYPE_DESC": "Public Elementary", "DIST_NAME": "Attleboro", "DIST_CODE": "00160000", "lon": -71.27207991214604, "lat": 41.916193031932863 }, "geometry": { "type": "Point", "coordinates": [ -71.27207991214604, 41.916193031932863 ] } },
{ "type": "Feature", "properties": { "SCHID": "02010040", "NAME": "James B Congdon School", "TOWN": "NEW BEDFORD", "GRADES": "K,01,02,03,04,05", "TYPE_DESC": "Public Elementary", "DIST_NAME": "New Bedford", "DIST_CODE": "02010000", "lon": -70.93161691556648, "lat": 41.621715891355358 }, "geometry": { "type": "Point", "coordinates": [ -70.93161691556648, 41.621715891355358 ] } },
{ "type": "Feature", "properties": { "SCHID": "02010510", "NAME": "Trinity Day Academy", "TOWN": "NEW BEDFORD", "GRADES": "04,05,06,07,08,09,10,11,12", "TYPE_DESC": "Public Secondary", "DIST_NAME": "New Bedford", "DIST_CODE": "02010000", "lon": -70.937204893448154, "lat": 41.639344502834284 }, "geometry": { "type": "Point", "coordinates": [ -70.937204893448154, 41.639344502834284 ] } },
{ "type": "Feature", "properties": { "SCHID": "03300015", "NAME": "Woodland School", "TOWN": "WESTON", "GRADES": "PK,K,01,02,03", "TYPE_DESC": "Public Elementary", "DIST_NAME": "Weston", "DIST_CODE": "03300000", "lon": -71.300214463100517, "lat": 42.361643966793423 }, "geometry": { "type": "Point", "coordinates": [ -71.300214463100517, 42.361643966793423 ] } },
{ "type": "Feature", "properties": { "SCHID": "00250020", "NAME": "Joseph F DiPietro Elementary School", "TOWN": "BELLINGHAM", "GRADES": "PK,K,01,02,03", "TYPE_DESC": "Public Elementary", "DIST_NAME": "Bellingham", "DIST_CODE": "00250000", "lon": -71.489143839844303, "lat": 42.033907490589975 }, "geometry": { "type": "Point", "coordinates": [ -71.489143839844303, 42.033907490589975 ] } },
{ "type": "Feature", "properties": { "SCHID": "02920006", "NAME": "Elizabeth S Brown School", "TOWN": "SWANSEA", "GRADES": "03,04,05", "TYPE_DESC": "Public Elementary", "DIST_NAME": "Swansea", "DIST_CODE": "02920000", "lon": -71.197493794599339, "lat": 41.748040208750687 }, "geometry": { "type": "Point", "coordinates": [ -71.197493794599339, 41.748040208750687 ] } },
{ "type": "Feature", "properties": { "SCHID": "03350012", "NAME": "Downey School", "TOWN": "WESTWOOD", "GRADES": "K,01,02,03,04,05", "TYPE_DESC": "Public Elementary", "DIST_NAME": "Westwood", "DIST_CODE": "03350000", "lon": -71.175790780896207, "lat": 42.214461305613725 }, "geometry": { "type": "Point", "coordinates": [ -71.175790780896207, 42.214461305613725 ] } },
{ "type": "Feature", "properties": { "SCHID": "03440020", "NAME": "Lynch Elementary School", "TOWN": "WINCHESTER", "GRADES": "PK,K,01,02,03,04,05", "TYPE_DESC": "Public Elementary", "DIST_NAME": "Winchester", "DIST_CODE": "03440000", "lon": -71.15054689399183, "lat": 42.46077946841266 }, "geometry": { "type": "Point", "coordinates": [ -71.15054689399183, 42.46077946841266 ] } },
{ "type": "Feature", "properties": { "SCHID": "00250510", "NAME": "Keough Memorial Academy", "TOWN": "BELLINGHAM", "GRADES": "07,08,09,10,11,12", "TYPE_DESC": "Public Secondary", "DIST_NAME": "Bellingham", "DIST_CODE": "00250000", "lon": -71.489143839844303, "lat": 42.033907490589975 }, "geometry": { "type": "Point", "coordinates": [ -71.489143839844303, 42.033907490589975 ] } },
{ "type": "Feature", "properties": { "SCHID": "00230012", "NAME": "Lt. Job Lane School", "TOWN": "BEDFORD", "GRADES": "03,04,05", "TYPE_DESC": "Public Elementary", "DIST_NAME": "Bedford", "DIST_CODE": "00230000", "lon": -71.279155828949115, "lat": 42.51563221036875 }, "geometry": { "type": "Point", "coordinates": [ -71.279155828949115, 42.51563221036875 ] } },
{ "type": "Feature", "properties": { "SCHID": "08290605", "NAME": "Joseph P Keefe Technical High School", "TOWN": "FRAMINGHAM", "GRADES": "09,10,11,12", "TYPE_DESC": "Public Voc/Tech/Ag Reg'l HS", "DIST_NAME": "South Middlesex RVT", "DIST_CODE": "08290000", "lon": -71.435478804760635, "lat": 42.276081451596326 }, "geometry": { "type": "Point", "coordinates": [ -71.435478804760635, 42.276081451596326 ] } },
{ "type": "Feature", "properties": { "SCHID": "02780015", "NAME": "Plains Elementary School", "TOWN": "SOUTH HADLEY", "GRADES": "PK,K,01", "TYPE_DESC": "Public Elementary", "DIST_NAME": "South Hadley", "DIST_CODE": "02780000", "lon": -72.574398169976348, "lat": 42.226852885196017 }, "geometry": { "type": "Point", "coordinates": [ -72.574398169976348, 42.226852885196017 ] } },
{ "type": "Feature", "properties": { "SCHID": "04200205", "NAME": "Benjamin Banneker Charter Public School", "TOWN": "CAMBRIDGE", "GRADES": "PK,K,01,02,03,04,05,06", "TYPE_DESC": "Charter", "DIST_NAME": "Benjamin Banneker Charter", "DIST_CODE": "04200000", "lon": -71.131709937861658, "lat": 42.3921126719424 }, "geometry": { "type": "Point", "coordinates": [ -71.131709937861658, 42.3921126719424 ] } },
{ "type": "Feature", "properties": { "SCHID": "00090305", "NAME": "Doherty Middle School", "TOWN": "ANDOVER", "GRADES": "06,07,08", "TYPE_DESC": "Public Middle", "DIST_NAME": "Andover", "DIST_CODE": "00090000", "lon": -71.135722949746096, "lat": 42.65420479147474 }, "geometry": { "type": "Point", "coordinates": [ -71.135722949746096, 42.65420479147474 ] } },
{ "type": "Feature", "properties": { "SCHID": "01840005", "NAME": "Howe-Manning School", "TOWN": "MIDDLETON", "GRADES": "PK,03,04,05,06", "TYPE_DESC": "Public Elementary", "DIST_NAME": "Middleton", "DIST_CODE": "01840000", "lon": -71.015408976120952, "lat": 42.596841621620555 }, "geometry": { "type": "Point", "coordinates": [ -71.015408976120952, 42.596841621620555 ] } },
{ "type": "Feature", "properties": { "SCHID": "04890505", "NAME": "Sturgis Charter Public School", "TOWN": "BARNSTABLE", "GRADES": "09,10,11,12", "TYPE_DESC": "Charter", "DIST_NAME": "Sturgis Charter", "DIST_CODE": "04890000", "lon": -70.285164203235155, "lat": 41.651777476741145 }, "geometry": { "type": "Point", "coordinates": [ -70.285164203235155, 41.651777476741145 ] } },
{ "type": "Feature", "properties": { "SCHID": "03430040", "NAME": "Memorial School", "TOWN": "WINCHENDON", "GRADES": "K,01,02", "TYPE_DESC": "Public Elementary", "DIST_NAME": "Winchendon", "DIST_CODE": "03430000", "lon": -72.041828909665938, "lat": 42.697861758241281 }, "geometry": { "type": "Point", "coordinates": [ -72.041828909665938, 42.697861758241281 ] } },
{ "type": "Feature", "properties": { "SCHID": "00440400", "NAME": "Brockton Therapeutic Day School", "TOWN": "BROCKTON", "GRADES": "K,01,02,03,04,05,06,07,08,09,10,11,12", "TYPE_DESC": "Public Secondary", "DIST_NAME": "Brockton", "DIST_CODE": "00440000", "lon": -71.003704322754047, "lat": 42.062572345467863 }, "geometry": { "type": "Point", "coordinates": [ -71.003704322754047, 42.062572345467863 ] } },
{ "type": "Feature", "properties": { "SCHID": "06500310", "NAME": "Dorothy L Beckwith School", "TOWN": "REHOBOTH", "GRADES": "05,06,07,08", "TYPE_DESC": "Public Middle", "DIST_NAME": "Dighton-Rehoboth", "DIST_CODE": "06500000", "lon": -71.254061561986575, "lat": 41.847876397642366 }, "geometry": { "type": "Point", "coordinates": [ -71.254061561986575, 41.847876397642366 ] } },
{ "type": "Feature", "properties": { "SCHID": "03260015", "NAME": "Nabnasset School", "TOWN": "WESTFORD", "GRADES": "PK,K,01,02", "TYPE_DESC": "Public Elementary", "DIST_NAME": "Westford", "DIST_CODE": "03260000", "lon": -71.421561414956273, "lat": 42.608698449373236 }, "geometry": { "type": "Point", "coordinates": [ -71.421561414956273, 42.608698449373236 ] } },
{ "type": "Feature", "properties": { "SCHID": "02740510", "NAME": "Full Circle High School", "TOWN": "SOMERVILLE", "GRADES": "09,10,11,12", "TYPE_DESC": "Public Secondary", "DIST_NAME": "Somerville", "DIST_CODE": "02740000", "lon": -71.095661387492015, "lat": 42.386781505834087 }, "geometry": { "type": "Point", "coordinates": [ -71.095661387492015, 42.386781505834087 ] } },
{ "type": "Feature", "properties": { "SCHID": "01640405", "NAME": "Lynnfield Middle School", "TOWN": "LYNNFIELD", "GRADES": "05,06,07,08", "TYPE_DESC": "Public Middle", "DIST_NAME": "Lynnfield", "DIST_CODE": "01640000", "lon": -71.051256969815825, "lat": 42.537201706895424 }, "geometry": { "type": "Point", "coordinates": [ -71.051256969815825, 42.537201706895424 ] } },
{ "type": "Feature", "properties": { "SCHID": "00940030", "NAME": "Leroy Wood School", "TOWN": "FAIRHAVEN", "GRADES": "PK,K,01,02,03,04,05", "TYPE_DESC": "Public Elementary", "DIST_NAME": "Fairhaven", "DIST_CODE": "00940000", "lon": -70.880868391068063, "lat": 41.635783603494197 }, "geometry": { "type": "Point", "coordinates": [ -70.880868391068063, 41.635783603494197 ] } },
{ "type": "Feature", "properties": { "SCHID": "00410010", "NAME": "Eddy Elementary School", "TOWN": "BREWSTER", "GRADES": "03,04,05", "TYPE_DESC": "Public Elementary", "DIST_NAME": "Brewster", "DIST_CODE": "00410000", "lon": -70.069930563763265, "lat": 41.761627293012175 }, "geometry": { "type": "Point", "coordinates": [ -70.069930563763265, 41.761627293012175 ] } },
{ "type": "Feature", "properties": { "SCHID": "02650015", "NAME": "Mildred Aitken School", "TOWN": "SEEKONK", "GRADES": "PK,K,01,02,03,04,05", "TYPE_DESC": "Public Elementary", "DIST_NAME": "Seekonk", "DIST_CODE": "02650000", "lon": -71.334249382529791, "lat": 41.845152302481445 }, "geometry": { "type": "Point", "coordinates": [ -71.334249382529791, 41.845152302481445 ] } },
{ "type": "Feature", "properties": { "SCHID": "02290510", "NAME": "Peabody Veterans Memorial High School", "TOWN": "PEABODY", "GRADES": "09,10,11,12", "TYPE_DESC": "Public Secondary", "DIST_NAME": "Peabody", "DIST_CODE": "02290000", "lon": -70.974966062154451, "lat": 42.54424679051295 }, "geometry": { "type": "Point", "coordinates": [ -70.974966062154451, 42.54424679051295 ] } },
{ "type": "Feature", "properties": { "SCHID": "07530505", "NAME": "Quabbin Regional High School", "TOWN": "BARRE", "GRADES": "09,10,11,12", "TYPE_DESC": "Public Secondary", "DIST_NAME": "Quabbin", "DIST_CODE": "07530000", "lon": -72.114949163363264, "lat": 42.400464136900993 }, "geometry": { "type": "Point", "coordinates": [ -72.114949163363264, 42.400464136900993 ] } },
{ "type": "Feature", "properties": { "SCHID": "00930010", "NAME": "Sumner G. Whittier School", "TOWN": "EVERETT", "GRADES": "K,01,02,03,04,05,06,07,08", "TYPE_DESC": "Public Elementary", "DIST_NAME": "Everett", "DIST_CODE": "00930000", "lon": -71.057693814551158, "lat": 42.403974574044454 }, "geometry": { "type": "Point", "coordinates": [ -71.057693814551158, 42.403974574044454 ] } },
{ "type": "Feature", "properties": { "SCHID": "03350050", "NAME": "Westwood Integrated Preschool", "TOWN": "WESTWOOD", "GRADES": "PK", "TYPE_DESC": "Public Elementary", "DIST_NAME": "Westwood", "DIST_CODE": "03350000", "lon": -71.216830873487396, "lat": 42.21705772534083 }, "geometry": { "type": "Point", "coordinates": [ -71.216830873487396, 42.21705772534083 ] } },
{ "type": "Feature", "properties": { "SCHID": "02010123", "NAME": "Casimir Pulaski School", "TOWN": "NEW BEDFORD", "GRADES": "PK,K,01,02,03,04,05", "TYPE_DESC": "Public Elementary", "DIST_NAME": "New Bedford", "DIST_CODE": "02010000", "lon": -70.944807223870782, "lat": 41.728388561587728 }, "geometry": { "type": "Point", "coordinates": [ -70.944807223870782, 41.728388561587728 ] } },
{ "type": "Feature", "properties": { "SCHID": "00310305", "NAME": "Marshall Middle School", "TOWN": "BILLERICA", "GRADES": "05,06,07", "TYPE_DESC": "Public Middle", "DIST_NAME": "Billerica", "DIST_CODE": "00310000", "lon": -71.271566921960869, "lat": 42.570289376704856 }, "geometry": { "type": "Point", "coordinates": [ -71.271566921960869, 42.570289376704856 ] } },
{ "type": "Feature", "properties": { "SCHID": "07750060", "NAME": "Glenwood Elementary School", "TOWN": "RUTLAND", "GRADES": "03,04,05", "TYPE_DESC": "Public Elementary", "DIST_NAME": "Wachusett", "DIST_CODE": "07750000", "lon": -71.944276634603654, "lat": 42.389309681900649 }, "geometry": { "type": "Point", "coordinates": [ -71.944276634603654, 42.389309681900649 ] } },
{ "type": "Feature", "properties": { "SCHID": "04780505", "NAME": "Francis W. Parker Charter Essential", "TOWN": "AYER", "GRADES": "07,08,09,10,11,12", "TYPE_DESC": "Charter", "DIST_NAME": "Francis W. Parker Charter Essential", "DIST_CODE": "04780000", "lon": -71.606106583788872, "lat": 42.54887942652644 }, "geometry": { "type": "Point", "coordinates": [ -71.606106583788872, 42.54887942652644 ] } },
{ "type": "Feature", "properties": { "SCHID": "06650305", "NAME": "Freetown-Lakeville Middle School", "TOWN": "LAKEVILLE", "GRADES": "06,07,08", "TYPE_DESC": "Public Middle", "DIST_NAME": "Freetown-Lakeville", "DIST_CODE": "06650000", "lon": -70.985759003922993, "lat": 41.789096959444841 }, "geometry": { "type": "Point", "coordinates": [ -70.985759003922993, 41.789096959444841 ] } },
{ "type": "Feature", "properties": { "SCHID": "01780050", "NAME": "Winthrop School", "TOWN": "MELROSE", "GRADES": "K,01,02,03,04,05", "TYPE_DESC": "Public Elementary", "DIST_NAME": "Melrose", "DIST_CODE": "01780000", "lon": -71.051460780399708, "lat": 42.457802315336984 }, "geometry": { "type": "Point", "coordinates": [ -71.051460780399708, 42.457802315336984 ] } },
{ "type": "Feature", "properties": { "SCHID": "02010015", "NAME": "Elizabeth Carter Brooks School", "TOWN": "NEW BEDFORD", "GRADES": "K,01,02,03,04,05", "TYPE_DESC": "Public Elementary", "DIST_NAME": "New Bedford", "DIST_CODE": "02010000", "lon": -70.953495477793069, "lat": 41.643282637589685 }, "geometry": { "type": "Point", "coordinates": [ -70.953495477793069, 41.643282637589685 ] } },
{ "type": "Feature", "properties": { "SCHID": "01000310", "NAME": "Walsh Middle School", "TOWN": "FRAMINGHAM", "GRADES": "06,07,08", "TYPE_DESC": "Public Middle", "DIST_NAME": "Framingham", "DIST_CODE": "01000000", "lon": -71.426980545257052, "lat": 42.322437808284064 }, "geometry": { "type": "Point", "coordinates": [ -71.426980545257052, 42.322437808284064 ] } },
{ "type": "Feature", "properties": { "SCHID": "01750505", "NAME": "Medfield Senior High School", "TOWN": "MEDFIELD", "GRADES": "09,10,11,12", "TYPE_DESC": "Public Secondary", "DIST_NAME": "Medfield", "DIST_CODE": "01750000", "lon": -71.29642349689621, "lat": 42.185424076347552 }, "geometry": { "type": "Point", "coordinates": [ -71.29642349689621, 42.185424076347552 ] } },
{ "type": "Feature", "properties": { "SCHID": "00870505", "NAME": "East Longmeadow High School", "TOWN": "EAST LONGMEADOW", "GRADES": "09,10,11,12", "TYPE_DESC": "Public Secondary", "DIST_NAME": "East Longmeadow", "DIST_CODE": "00870000", "lon": -72.524995707271401, "lat": 42.058575907712957 }, "geometry": { "type": "Point", "coordinates": [ -72.524995707271401, 42.058575907712957 ] } },
{ "type": "Feature", "properties": { "SCHID": "02200010", "NAME": "Cornelius M Callahan School", "TOWN": "NORWOOD", "GRADES": "01,02,03,04", "TYPE_DESC": "Public Elementary", "DIST_NAME": "Norwood", "DIST_CODE": "02200000", "lon": -71.190832539385084, "lat": 42.195517678026171 }, "geometry": { "type": "Point", "coordinates": [ -71.190832539385084, 42.195517678026171 ] } },
{ "type": "Feature", "properties": { "SCHID": "02010078", "NAME": "Hayden/McFadden School", "TOWN": "NEW BEDFORD", "GRADES": "K,01,02,03,04,05", "TYPE_DESC": "Public Elementary", "DIST_NAME": "New Bedford", "DIST_CODE": "02010000", "lon": -70.931849127145668, "lat": 41.65456805047166 }, "geometry": { "type": "Point", "coordinates": [ -70.931849127145668, 41.65456805047166 ] } },
{ "type": "Feature", "properties": { "SCHID": "00610090", "NAME": "Gen. John J Stefanik School", "TOWN": "CHICOPEE", "GRADES": "PK,K,01,02,03,04,05", "TYPE_DESC": "Public Elementary", "DIST_NAME": "Chicopee", "DIST_CODE": "00610000", "lon": -72.61554567090208, "lat": 42.167116738429897 }, "geometry": { "type": "Point", "coordinates": [ -72.61554567090208, 42.167116738429897 ] } },
{ "type": "Feature", "properties": { "SCHID": "00160315", "NAME": "Cyril K. Brennan Middle School", "TOWN": "ATTLEBORO", "GRADES": "05,06,07,08", "TYPE_DESC": "Public Middle", "DIST_NAME": "Attleboro", "DIST_CODE": "00160000", "lon": -71.304766775198601, "lat": 41.940241044404736 }, "geometry": { "type": "Point", "coordinates": [ -71.304766775198601, 41.940241044404736 ] } },
{ "type": "Feature", "properties": { "SCHID": "06980510", "NAME": "Manchester Essex Regional High School", "TOWN": "MANCHESTER-BY-THE-SEA", "GRADES": "09,10,11,12", "TYPE_DESC": "Public Secondary", "DIST_NAME": "Manchester Essex", "DIST_CODE": "06980000", "lon": -70.765393429215948, "lat": 42.581785965867816 }, "geometry": { "type": "Point", "coordinates": [ -70.765393429215948, 42.581785965867816 ] } },
{ "type": "Feature", "properties": { "SCHID": "00870013", "NAME": "Meadow Brook School", "TOWN": "EAST LONGMEADOW", "GRADES": "PK,K,01,02", "TYPE_DESC": "Public Elementary", "DIST_NAME": "East Longmeadow", "DIST_CODE": "00870000", "lon": -72.483841168112761, "lat": 42.078673035828032 }, "geometry": { "type": "Point", "coordinates": [ -72.483841168112761, 42.078673035828032 ] } },
{ "type": "Feature", "properties": { "SCHID": "07450010", "NAME": "Helen R Donaghue School", "TOWN": "MERRIMAC", "GRADES": "03,04,05,06", "TYPE_DESC": "Public Elementary", "DIST_NAME": "Pentucket", "DIST_CODE": "07450000", "lon": -71.0052034790276, "lat": 42.827905156780702 }, "geometry": { "type": "Point", "coordinates": [ -71.0052034790276, 42.827905156780702 ] } },
{ "type": "Feature", "properties": { "SCHID": "00480007", "NAME": "Fox Hill School", "TOWN": "BURLINGTON", "GRADES": "K,01,02,03,04,05", "TYPE_DESC": "Public Elementary", "DIST_NAME": "Burlington", "DIST_CODE": "00480000", "lon": -71.18900975377764, "lat": 42.52933492215022 }, "geometry": { "type": "Point", "coordinates": [ -71.18900975377764, 42.52933492215022 ] } },
{ "type": "Feature", "properties": { "SCHID": "01750305", "NAME": "Thomas Blake Middle School", "TOWN": "MEDFIELD", "GRADES": "06,07,08", "TYPE_DESC": "Public Middle", "DIST_NAME": "Medfield", "DIST_CODE": "01750000", "lon": -71.295687644567522, "lat": 42.185901742671966 }, "geometry": { "type": "Point", "coordinates": [ -71.295687644567522, 42.185901742671966 ] } },
{ "type": "Feature", "properties": { "SCHID": "02390047", "NAME": "West Elementary School", "TOWN": "PLYMOUTH", "GRADES": "K,01,02,03,04,05", "TYPE_DESC": "Public Elementary", "DIST_NAME": "Plymouth", "DIST_CODE": "02390000", "lon": -70.721407248828612, "lat": 41.944989778438739 }, "geometry": { "type": "Point", "coordinates": [ -70.721407248828612, 41.944989778438739 ] } },
{ "type": "Feature", "properties": { "SCHID": "04960305", "NAME": "Global Learning Charter Public School", "TOWN": "NEW BEDFORD", "GRADES": "05,06,07,08,09,10,11,12", "TYPE_DESC": "Charter", "DIST_NAME": "Global Learning Charter", "DIST_CODE": "04960000", "lon": -70.929287226455415, "lat": 41.659932815559614 }, "geometry": { "type": "Point", "coordinates": [ -70.929287226455415, 41.659932815559614 ] } },
{ "type": "Feature", "properties": { "SCHID": "03420005", "NAME": "Boutwell School", "TOWN": "WILMINGTON", "GRADES": "PK,K", "TYPE_DESC": "Public Elementary", "DIST_NAME": "Wilmington", "DIST_CODE": "03420000", "lon": -71.188397797487454, "lat": 42.5487089086594 }, "geometry": { "type": "Point", "coordinates": [ -71.188397797487454, 42.5487089086594 ] } },
{ "type": "Feature", "properties": { "SCHID": "02010075", "NAME": "Ellen R Hathaway School", "TOWN": "NEW BEDFORD", "GRADES": "K,01,02,03,04,05", "TYPE_DESC": "Public Elementary", "DIST_NAME": "New Bedford", "DIST_CODE": "02010000", "lon": -70.940073271526288, "lat": 41.633233362106225 }, "geometry": { "type": "Point", "coordinates": [ -70.940073271526288, 41.633233362106225 ] } },
{ "type": "Feature", "properties": { "SCHID": "03420080", "NAME": "West Intermediate School", "TOWN": "WILMINGTON", "GRADES": "PK,K,04,05", "TYPE_DESC": "Public Elementary", "DIST_NAME": "Wilmington", "DIST_CODE": "03420000", "lon": -71.188397797487454, "lat": 42.5487089086594 }, "geometry": { "type": "Point", "coordinates": [ -71.188397797487454, 42.5487089086594 ] } },
{ "type": "Feature", "properties": { "SCHID": "02740005", "NAME": "Capuano Early Childhood Center", "TOWN": "SOMERVILLE", "GRADES": "PK,K,01", "TYPE_DESC": "Public Elementary", "DIST_NAME": "Somerville", "DIST_CODE": "02740000", "lon": -71.086728971145419, "lat": 42.382492135723439 }, "geometry": { "type": "Point", "coordinates": [ -71.086728971145419, 42.382492135723439 ] } },
{ "type": "Feature", "properties": { "SCHID": "08050605", "NAME": "Blackstone Valley Regional Vocational Technical High School", "TOWN": "UPTON", "GRADES": "09,10,11,12", "TYPE_DESC": "Public Voc/Tech/Ag Reg'l HS", "DIST_NAME": "Blackstone Valley RVT", "DIST_CODE": "08050000", "lon": -71.616321041976022, "lat": 42.163239214430007 }, "geometry": { "type": "Point", "coordinates": [ -71.616321041976022, 42.163239214430007 ] } },
{ "type": "Feature", "properties": { "SCHID": "00440010", "NAME": "Brookfield School", "TOWN": "BROCKTON", "GRADES": "PK,K,01,02,03,04,05", "TYPE_DESC": "Public Elementary", "DIST_NAME": "Brockton", "DIST_CODE": "00440000", "lon": -71.009705234728415, "lat": 42.117551493309811 }, "geometry": { "type": "Point", "coordinates": [ -71.009705234728415, 42.117551493309811 ] } },
{ "type": "Feature", "properties": { "SCHID": "02360310", "NAME": "Theodore Herberg Middle School", "TOWN": "PITTSFIELD", "GRADES": "06,07,08", "TYPE_DESC": "Public Middle", "DIST_NAME": "Pittsfield", "DIST_CODE": "02360000", "lon": -73.241864387703188, "lat": 42.434067106471765 }, "geometry": { "type": "Point", "coordinates": [ -73.241864387703188, 42.434067106471765 ] } },
{ "type": "Feature", "properties": { "SCHID": "02430040", "NAME": "Atherton Hough School", "TOWN": "QUINCY", "GRADES": "K,01,02,03,04,05", "TYPE_DESC": "Public Elementary", "DIST_NAME": "Quincy", "DIST_CODE": "02430000", "lon": -70.957549109421123, "lat": 42.26673753928295 }, "geometry": { "type": "Point", "coordinates": [ -70.957549109421123, 42.26673753928295 ] } },
{ "type": "Feature", "properties": { "SCHID": "01590025", "NAME": "Wolf Swamp Road School", "TOWN": "LONGMEADOW", "GRADES": "PK,K,01,02,03,04,05", "TYPE_DESC": "Public Elementary", "DIST_NAME": "Longmeadow", "DIST_CODE": "01590000", "lon": -72.560309472410111, "lat": 42.038157715711243 }, "geometry": { "type": "Point", "coordinates": [ -72.560309472410111, 42.038157715711243 ] } },
{ "type": "Feature", "properties": { "SCHID": "00230010", "NAME": "Lt. Eleazer Davis Elementary School", "TOWN": "BEDFORD", "GRADES": "PK,K,01,02", "TYPE_DESC": "Public Elementary", "DIST_NAME": "Bedford", "DIST_CODE": "00230000", "lon": -71.309184220565314, "lat": 42.485086605550933 }, "geometry": { "type": "Point", "coordinates": [ -71.309184220565314, 42.485086605550933 ] } },
{ "type": "Feature", "properties": { "SCHID": "01640010", "NAME": "Huckleberry Hill School", "TOWN": "LYNNFIELD", "GRADES": "K,01,02,03,04", "TYPE_DESC": "Public Elementary", "DIST_NAME": "Lynnfield", "DIST_CODE": "01640000", "lon": -71.022947203228867, "lat": 42.523105054883267 }, "geometry": { "type": "Point", "coordinates": [ -71.022947203228867, 42.523105054883267 ] } },
{ "type": "Feature", "properties": { "SCHID": "00310026", "NAME": "Hajjar Elementary School", "TOWN": "BILLERICA", "GRADES": "K,01,02,03,04", "TYPE_DESC": "Public Elementary", "DIST_NAME": "Billerica", "DIST_CODE": "00310000", "lon": -71.279555340261126, "lat": 42.585929636661923 }, "geometry": { "type": "Point", "coordinates": [ -71.279555340261126, 42.585929636661923 ] } },
{ "type": "Feature", "properties": { "SCHID": "00960405", "NAME": "Lawrence School", "TOWN": "FALMOUTH", "GRADES": "07,08", "TYPE_DESC": "Public Middle", "DIST_NAME": "Falmouth", "DIST_CODE": "00960000", "lon": -70.615320345025523, "lat": 41.555350201551278 }, "geometry": { "type": "Point", "coordinates": [ -70.615320345025523, 41.555350201551278 ] } },
{ "type": "Feature", "properties": { "SCHID": "00310015", "NAME": "Parker School", "TOWN": "BILLERICA", "GRADES": "K,01,02,03,04", "TYPE_DESC": "Public Elementary", "DIST_NAME": "Billerica", "DIST_CODE": "00310000", "lon": -71.272770992583077, "lat": 42.557422956155449 }, "geometry": { "type": "Point", "coordinates": [ -71.272770992583077, 42.557422956155449 ] } },
{ "type": "Feature", "properties": { "SCHID": "01070042", "NAME": "Plum Cove School", "TOWN": "GLOUCESTER", "GRADES": "K,01,02,03,04,05", "TYPE_DESC": "Public Elementary", "DIST_NAME": "Gloucester", "DIST_CODE": "01070000", "lon": -70.65911164153961, "lat": 42.673476033217042 }, "geometry": { "type": "Point", "coordinates": [ -70.65911164153961, 42.673476033217042 ] } },
{ "type": "Feature", "properties": { "SCHID": "00790035", "NAME": "Brookside Elementary School", "TOWN": "DRACUT", "GRADES": "PK,K,01,02,03,04,05", "TYPE_DESC": "Public Elementary", "DIST_NAME": "Dracut", "DIST_CODE": "00790000", "lon": -71.341893616596593, "lat": 42.672817392991931 }, "geometry": { "type": "Point", "coordinates": [ -71.341893616596593, 42.672817392991931 ] } },
{ "type": "Feature", "properties": { "SCHID": "06600305", "NAME": "Nauset Regional Middle School", "TOWN": "ORLEANS", "GRADES": "06,07,08", "TYPE_DESC": "Public Middle", "DIST_NAME": "Nauset", "DIST_CODE": "06600000", "lon": -69.989470139189748, "lat": 41.783482426906559 }, "geometry": { "type": "Point", "coordinates": [ -69.989470139189748, 41.783482426906559 ] } },
{ "type": "Feature", "properties": { "SCHID": "06750007", "NAME": "Bessie Buker Elementary School", "TOWN": "WENHAM", "GRADES": "K,01,02,03,04,05", "TYPE_DESC": "Public Elementary", "DIST_NAME": "Hamilton-Wenham", "DIST_CODE": "06750000", "lon": -70.885340987030574, "lat": 42.608584803662033 }, "geometry": { "type": "Point", "coordinates": [ -70.885340987030574, 42.608584803662033 ] } },
{ "type": "Feature", "properties": { "SCHID": "02580003", "NAME": "Bates School", "TOWN": "SALEM", "GRADES": "PK,K,01,02,03,04,05", "TYPE_DESC": "Public Elementary", "DIST_NAME": "Salem", "DIST_CODE": "02580000", "lon": -70.905776589193863, "lat": 42.534542144542549 }, "geometry": { "type": "Point", "coordinates": [ -70.905776589193863, 42.534542144542549 ] } },
{ "type": "Feature", "properties": { "SCHID": "06500010", "NAME": "Palmer River School", "TOWN": "REHOBOTH", "GRADES": "PK,K,01,02,03,04", "TYPE_DESC": "Public Elementary", "DIST_NAME": "Dighton-Rehoboth", "DIST_CODE": "06500000", "lon": -71.254061561986575, "lat": 41.847876397642366 }, "geometry": { "type": "Point", "coordinates": [ -71.254061561986575, 41.847876397642366 ] } },
{ "type": "Feature", "properties": { "SCHID": "07250310", "NAME": "Hale School", "TOWN": "STOW", "GRADES": "06,07,08", "TYPE_DESC": "Public Middle", "DIST_NAME": "Nashoba", "DIST_CODE": "07250000", "lon": -71.507162110434209, "lat": 42.440812197254608 }, "geometry": { "type": "Point", "coordinates": [ -71.507162110434209, 42.440812197254608 ] } },
{ "type": "Feature", "properties": { "SCHID": "01730010", "NAME": "Old Hammondtown School", "TOWN": "MATTAPOISETT", "GRADES": "04,05,06", "TYPE_DESC": "Public Elementary", "DIST_NAME": "Mattapoisett", "DIST_CODE": "01730000", "lon": -70.832202103474927, "lat": 41.660059513013387 }, "geometry": { "type": "Point", "coordinates": [ -70.832202103474927, 41.660059513013387 ] } },
{ "type": "Feature", "properties": { "SCHID": "02730005", "NAME": "Chace Street School", "TOWN": "SOMERSET", "GRADES": "K,01,02,03,04,05", "TYPE_DESC": "Public Elementary", "DIST_NAME": "Somerset", "DIST_CODE": "02730000", "lon": -71.147624133435656, "lat": 41.763425655956837 }, "geometry": { "type": "Point", "coordinates": [ -71.147624133435656, 41.763425655956837 ] } },
{ "type": "Feature", "properties": { "SCHID": "00050030", "NAME": "James Clark School", "TOWN": "AGAWAM", "GRADES": "K,01,02,03,04", "TYPE_DESC": "Public Elementary", "DIST_NAME": "Agawam", "DIST_CODE": "00050000", "lon": -72.631649084690665, "lat": 42.045421219333889 }, "geometry": { "type": "Point", "coordinates": [ -72.631649084690665, 42.045421219333889 ] } },
{ "type": "Feature", "properties": { "SCHID": "01630060", "NAME": "Ingalls School", "TOWN": "LYNN", "GRADES": "K,01,02,03,04,05", "TYPE_DESC": "Public Elementary", "DIST_NAME": "Lynn", "DIST_CODE": "01630000", "lon": -70.936625745992885, "lat": 42.471588142755877 }, "geometry": { "type": "Point", "coordinates": [ -70.936625745992885, 42.471588142755877 ] } },
{ "type": "Feature", "properties": { "SCHID": "00500010", "NAME": "Rodman Early Childhood Center", "TOWN": "CANTON", "GRADES": "PK", "TYPE_DESC": "Public Elementary", "DIST_NAME": "Canton", "DIST_CODE": "00500000", "lon": -71.147335735057524, "lat": 42.164550408477197 }, "geometry": { "type": "Point", "coordinates": [ -71.147335735057524, 42.164550408477197 ] } },
{ "type": "Feature", "properties": { "SCHID": "03440305", "NAME": "McCall Middle School", "TOWN": "WINCHESTER", "GRADES": "06,07,08", "TYPE_DESC": "Public Middle", "DIST_NAME": "Winchester", "DIST_CODE": "03440000", "lon": -71.134981791289462, "lat": 42.44993222283027 }, "geometry": { "type": "Point", "coordinates": [ -71.134981791289462, 42.44993222283027 ] } },
{ "type": "Feature", "properties": { "SCHID": "00610022", "NAME": "Litwin School", "TOWN": "CHICOPEE", "GRADES": "02,03,04,05", "TYPE_DESC": "Public Elementary", "DIST_NAME": "Chicopee", "DIST_CODE": "00610000", "lon": -72.524299202176579, "lat": 42.174760947290096 }, "geometry": { "type": "Point", "coordinates": [ -72.524299202176579, 42.174760947290096 ] } },
{ "type": "Feature", "properties": { "SCHID": "07730025", "NAME": "Pine Grove School", "TOWN": "ROWLEY", "GRADES": "PK,K,01,02,03,04,05,06", "TYPE_DESC": "Public Elementary", "DIST_NAME": "Triton", "DIST_CODE": "07730000", "lon": -70.874675996587243, "lat": 42.716985092507677 }, "geometry": { "type": "Point", "coordinates": [ -70.874675996587243, 42.716985092507677 ] } },
{ "type": "Feature", "properties": { "SCHID": "04880550", "NAME": "South Shore Charter Public School", "TOWN": "NORWELL", "GRADES": "K,01,02,03,04,05,06,07,08,09,10,11,12", "TYPE_DESC": "Charter", "DIST_NAME": "South Shore Charter", "DIST_CODE": "04880000", "lon": -70.881300324123728, "lat": 42.15668045217906 }, "geometry": { "type": "Point", "coordinates": [ -70.881300324123728, 42.15668045217906 ] } },
{ "type": "Feature", "properties": { "SCHID": "01630095", "NAME": "Edward A Sisson School", "TOWN": "LYNN", "GRADES": "PK,K,01,02,03,04,05", "TYPE_DESC": "Public Elementary", "DIST_NAME": "Lynn", "DIST_CODE": "01630000", "lon": -70.957833403097837, "lat": 42.486323212016032 }, "geometry": { "type": "Point", "coordinates": [ -70.957833403097837, 42.486323212016032 ] } },
{ "type": "Feature", "properties": { "SCHID": "02880305", "NAME": "Ephraim Curtis Middle School", "TOWN": "SUDBURY", "GRADES": "06,07,08", "TYPE_DESC": "Public Middle", "DIST_NAME": "Sudbury", "DIST_CODE": "02880000", "lon": -71.433052777344329, "lat": 42.380271900275474 }, "geometry": { "type": "Point", "coordinates": [ -71.433052777344329, 42.380271900275474 ] } },
{ "type": "Feature", "properties": { "SCHID": "01070050", "NAME": "West Parish School", "TOWN": "GLOUCESTER", "GRADES": "K,01,02,03,04,05", "TYPE_DESC": "Public Elementary", "DIST_NAME": "Gloucester", "DIST_CODE": "01070000", "lon": -70.712030005336814, "lat": 42.619498151686535 }, "geometry": { "type": "Point", "coordinates": [ -70.712030005336814, 42.619498151686535 ] } },
{ "type": "Feature", "properties": { "SCHID": "02170010", "NAME": "J. Turner Hood Elementary School", "TOWN": "NORTH READING", "GRADES": "PK,K,01,02,03,04,05", "TYPE_DESC": "Public Elementary", "DIST_NAME": "North Reading", "DIST_CODE": "02170000", "lon": -71.08914756631431, "lat": 42.5951292729291 }, "geometry": { "type": "Point", "coordinates": [ -71.08914756631431, 42.5951292729291 ] } },
{ "type": "Feature", "properties": { "SCHID": "00440017", "NAME": "John F Kennedy School", "TOWN": "BROCKTON", "GRADES": "K,01,02,03,04,05", "TYPE_DESC": "Public Elementary", "DIST_NAME": "Brockton", "DIST_CODE": "00440000", "lon": -71.037339601500179, "lat": 42.059491564932742 }, "geometry": { "type": "Point", "coordinates": [ -71.037339601500179, 42.059491564932742 ] } },
{ "type": "Feature", "properties": { "SCHID": "03440040", "NAME": "Muraco Elementary School", "TOWN": "WINCHESTER", "GRADES": "K,01,02,03,04,05", "TYPE_DESC": "Public Elementary", "DIST_NAME": "Winchester", "DIST_CODE": "03440000", "lon": -71.131239615396865, "lat": 42.463215494554554 }, "geometry": { "type": "Point", "coordinates": [ -71.131239615396865, 42.463215494554554 ] } },
{ "type": "Feature", "properties": { "SCHID": "00460035", "NAME": "William H Lincoln School", "TOWN": "BROOKLINE", "GRADES": "K,01,02,03,04,05,06,07,08", "TYPE_DESC": "Public Elementary", "DIST_NAME": "Brookline", "DIST_CODE": "00460000", "lon": -71.12929290456168, "lat": 42.32855195327263 }, "geometry": { "type": "Point", "coordinates": [ -71.12929290456168, 42.32855195327263 ] } },
{ "type": "Feature", "properties": { "SCHID": "00090010", "NAME": "Henry C Sanborn Elementary School", "TOWN": "ANDOVER", "GRADES": "K,01,02,03,04,05", "TYPE_DESC": "Public Elementary", "DIST_NAME": "Andover", "DIST_CODE": "00090000", "lon": -71.178550170285405, "lat": 42.641998101127278 }, "geometry": { "type": "Point", "coordinates": [ -71.178550170285405, 42.641998101127278 ] } },
{ "type": "Feature", "properties": { "SCHID": "03350017", "NAME": "Martha Jones School", "TOWN": "WESTWOOD", "GRADES": "K,01,02,03,04,05", "TYPE_DESC": "Public Elementary", "DIST_NAME": "Westwood", "DIST_CODE": "03350000", "lon": -71.23506230543083, "lat": 42.200115339083297 }, "geometry": { "type": "Point", "coordinates": [ -71.23506230543083, 42.200115339083297 ] } },
{ "type": "Feature", "properties": { "SCHID": "04660550", "NAME": "Martha's Vineyard Public Charter School", "TOWN": "WEST TISBURY", "GRADES": "K,01,02,03,04,05,06,07,08,09,10,11,12", "TYPE_DESC": "Charter", "DIST_NAME": "Martha's Vineyard Charter", "DIST_CODE": "04660000", "lon": -70.664530766803196, "lat": 41.419293005490687 }, "geometry": { "type": "Point", "coordinates": [ -70.664530766803196, 41.419293005490687 ] } },
{ "type": "Feature", "properties": { "SCHID": "08790605", "NAME": "Upper Cape Cod Vocational Technical School", "TOWN": "BOURNE", "GRADES": "09,10,11,12", "TYPE_DESC": "Public Voc/Tech/Ag Reg'l HS", "DIST_NAME": "Upper Cape Cod RVT", "DIST_CODE": "08790000", "lon": -70.578920852262158, "lat": 41.745272868987293 }, "geometry": { "type": "Point", "coordinates": [ -70.578920852262158, 41.745272868987293 ] } },
{ "type": "Feature", "properties": { "SCHID": "00180010", "NAME": "Ralph D Butler School", "TOWN": "AVON", "GRADES": "PK,K,01,02,03,04,05", "TYPE_DESC": "Public Elementary", "DIST_NAME": "Avon", "DIST_CODE": "00180000", "lon": -71.045433900009868, "lat": 42.114225409090281 }, "geometry": { "type": "Point", "coordinates": [ -71.045433900009868, 42.114225409090281 ] } },
{ "type": "Feature", "properties": { "SCHID": "00310310", "NAME": "Locke Middle School", "TOWN": "BILLERICA", "GRADES": "05,06,07", "TYPE_DESC": "Public Middle", "DIST_NAME": "Billerica", "DIST_CODE": "00310000", "lon": -71.246276877366327, "lat": 42.551191041428872 }, "geometry": { "type": "Point", "coordinates": [ -71.246276877366327, 42.551191041428872 ] } },
{ "type": "Feature", "properties": { "SCHID": "07150505", "NAME": "Mount Greylock Regional High School", "TOWN": "WILLIAMSTOWN", "GRADES": "07,08,09,10,11,12", "TYPE_DESC": "Public Secondary", "DIST_NAME": "Mount Greylock", "DIST_CODE": "07150000", "lon": -73.241968160112194, "lat": 42.670871510168695 }, "geometry": { "type": "Point", "coordinates": [ -73.241968160112194, 42.670871510168695 ] } },
{ "type": "Feature", "properties": { "SCHID": "00500017", "NAME": "John F Kennedy School", "TOWN": "CANTON", "GRADES": "K,01,02,03,04,05", "TYPE_DESC": "Public Elementary", "DIST_NAME": "Canton", "DIST_CODE": "00500000", "lon": -71.142646239122371, "lat": 42.175187898381935 }, "geometry": { "type": "Point", "coordinates": [ -71.142646239122371, 42.175187898381935 ] } },
{ "type": "Feature", "properties": { "SCHID": "00610020", "NAME": "Bowie School", "TOWN": "CHICOPEE", "GRADES": "PK,K,01,02,03,04,05", "TYPE_DESC": "Public Elementary", "DIST_NAME": "Chicopee", "DIST_CODE": "00610000", "lon": -72.558831427166794, "lat": 42.197825738041146 }, "geometry": { "type": "Point", "coordinates": [ -72.558831427166794, 42.197825738041146 ] } },
{ "type": "Feature", "properties": { "SCHID": "01810050", "NAME": "Comprehensive Grammar School", "TOWN": "METHUEN", "GRADES": "K,01,02,03,04,05,06,07,08", "TYPE_DESC": "Public Elementary", "DIST_NAME": "Methuen", "DIST_CODE": "01810000", "lon": -71.17578893741107, "lat": 42.747558958128522 }, "geometry": { "type": "Point", "coordinates": [ -71.17578893741107, 42.747558958128522 ] } },
{ "type": "Feature", "properties": { "SCHID": "02240005", "NAME": "Orleans Elementary School", "TOWN": "ORLEANS", "GRADES": "K,01,02,03,04,05", "TYPE_DESC": "Public Elementary", "DIST_NAME": "Orleans", "DIST_CODE": "02240000", "lon": -69.994044368480544, "lat": 41.781092744092561 }, "geometry": { "type": "Point", "coordinates": [ -69.994044368480544, 41.781092744092561 ] } },
{ "type": "Feature", "properties": { "SCHID": "01890410", "NAME": "Charles S Pierce Middle School", "TOWN": "MILTON", "GRADES": "06,07,08", "TYPE_DESC": "Public Middle", "DIST_NAME": "Milton", "DIST_CODE": "01890000", "lon": -71.083403041201393, "lat": 42.25786495353568 }, "geometry": { "type": "Point", "coordinates": [ -71.083403041201393, 42.25786495353568 ] } },
{ "type": "Feature", "properties": { "SCHID": "06830505", "NAME": "Hampshire Regional High School", "TOWN": "WESTHAMPTON", "GRADES": "07,08,09,10,11,12", "TYPE_DESC": "Public Secondary", "DIST_NAME": "Hampshire", "DIST_CODE": "06830000", "lon": -72.771713095227696, "lat": 42.302820527260828 }, "geometry": { "type": "Point", "coordinates": [ -72.771713095227696, 42.302820527260828 ] } },
{ "type": "Feature", "properties": { "SCHID": "07450015", "NAME": "Dr. John C Page School", "TOWN": "WEST NEWBURY", "GRADES": "PK,K,01,02,03,04,05,06", "TYPE_DESC": "Public Elementary", "DIST_NAME": "Pentucket", "DIST_CODE": "07450000", "lon": -70.961672955936976, "lat": 42.808775997507837 }, "geometry": { "type": "Point", "coordinates": [ -70.961672955936976, 42.808775997507837 ] } },
{ "type": "Feature", "properties": { "SCHID": "00050505", "NAME": "Agawam High School", "TOWN": "AGAWAM", "GRADES": "09,10,11,12", "TYPE_DESC": "Public Secondary", "DIST_NAME": "Agawam", "DIST_CODE": "00050000", "lon": -72.645101987003471, "lat": 42.074202680549099 }, "geometry": { "type": "Point", "coordinates": [ -72.645101987003471, 42.074202680549099 ] } },
{ "type": "Feature", "properties": { "SCHID": "02040030", "NAME": "Edward G. Molin Elementary School", "TOWN": "NEWBURYPORT", "GRADES": "04,05", "TYPE_DESC": "Public Elementary", "DIST_NAME": "Newburyport", "DIST_CODE": "02040000", "lon": -70.887425490976554, "lat": 42.808791862423533 }, "geometry": { "type": "Point", "coordinates": [ -70.887425490976554, 42.808791862423533 ] } },
{ "type": "Feature", "properties": { "SCHID": "01820505", "NAME": "Middleborough High School", "TOWN": "MIDDLEBOROUGH", "GRADES": "09,10,11,12", "TYPE_DESC": "Public Secondary", "DIST_NAME": "Middleborough", "DIST_CODE": "01820000", "lon": -70.904566710483834, "lat": 41.880350852544247 }, "geometry": { "type": "Point", "coordinates": [ -70.904566710483834, 41.880350852544247 ] } },
{ "type": "Feature", "properties": { "SCHID": "00400033", "NAME": "Archie T Morrison School", "TOWN": "BRAINTREE", "GRADES": "K,01,02,03,04", "TYPE_DESC": "Public Elementary", "DIST_NAME": "Braintree", "DIST_CODE": "00400000", "lon": -70.979181812665786, "lat": 42.210324620258213 }, "geometry": { "type": "Point", "coordinates": [ -70.979181812665786, 42.210324620258213 ] } },
{ "type": "Feature", "properties": { "SCHID": "01850090", "NAME": "Woodland School", "TOWN": "MILFORD", "GRADES": "03,04,05", "TYPE_DESC": "Public Elementary", "DIST_NAME": "Milford", "DIST_CODE": "01850000", "lon": -71.541470432951954, "lat": 42.158848820384179 }, "geometry": { "type": "Point", "coordinates": [ -71.541470432951954, 42.158848820384179 ] } },
{ "type": "Feature", "properties": { "SCHID": "04540205", "NAME": "Lawrence Family Development Charter School", "TOWN": "LAWRENCE", "GRADES": "PK,K,01,02,03,04,05,06,07,08", "TYPE_DESC": "Charter", "DIST_NAME": "Lawrence Family Development Charter", "DIST_CODE": "04540000", "lon": -71.173899825103931, "lat": 42.708480676806992 }, "geometry": { "type": "Point", "coordinates": [ -71.173899825103931, 42.708480676806992 ] } },
{ "type": "Feature", "properties": { "SCHID": "02480025", "NAME": "Abraham Lincoln School", "TOWN": "REVERE", "GRADES": "PK,K,01,02,03,04,05", "TYPE_DESC": "Public Elementary", "DIST_NAME": "Revere", "DIST_CODE": "02480000", "lon": -71.009945278409845, "lat": 42.416787771969766 }, "geometry": { "type": "Point", "coordinates": [ -71.009945278409845, 42.416787771969766 ] } },
{ "type": "Feature", "properties": { "SCHID": "04790505", "NAME": "Pioneer Valley Performing Arts Charter Public School", "TOWN": "SOUTH HADLEY", "GRADES": "07,08,09,10,11,12", "TYPE_DESC": "Charter", "DIST_NAME": "Pioneer Valley Performing Arts Charter", "DIST_CODE": "04790000", "lon": -72.599270296115662, "lat": 42.241203141840501 }, "geometry": { "type": "Point", "coordinates": [ -72.599270296115662, 42.241203141840501 ] } },
{ "type": "Feature", "properties": { "SCHID": "06220008", "NAME": "John F Kennedy Elementary School", "TOWN": "BLACKSTONE", "GRADES": "PK", "TYPE_DESC": "Public Elementary", "DIST_NAME": "Blackstone-Millville", "DIST_CODE": "06220000", "lon": -71.545498371363152, "lat": 42.028982294555469 }, "geometry": { "type": "Point", "coordinates": [ -71.545498371363152, 42.028982294555469 ] } },
{ "type": "Feature", "properties": { "SCHID": "01000039", "NAME": "Potter Road School", "TOWN": "FRAMINGHAM", "GRADES": "K,01,02,03,04,05", "TYPE_DESC": "Public Elementary", "DIST_NAME": "Framingham", "DIST_CODE": "01000000", "lon": -71.413942093121747, "lat": 42.337028412294131 }, "geometry": { "type": "Point", "coordinates": [ -71.413942093121747, 42.337028412294131 ] } },
{ "type": "Feature", "properties": { "SCHID": "01270505", "NAME": "Smith Academy", "TOWN": "HATFIELD", "GRADES": "06,07,08,09,10,11,12", "TYPE_DESC": "Public Secondary", "DIST_NAME": "Hatfield", "DIST_CODE": "01270000", "lon": -72.600643287121883, "lat": 42.375593583524577 }, "geometry": { "type": "Point", "coordinates": [ -72.600643287121883, 42.375593583524577 ] } },
{ "type": "Feature", "properties": { "SCHID": "01770015", "NAME": "Burke/Memorial Elementary School", "TOWN": "MEDWAY", "GRADES": "02,03,04", "TYPE_DESC": "Public Elementary", "DIST_NAME": "Medway", "DIST_CODE": "01770000", "lon": -71.407721248777264, "lat": 42.141286667564906 }, "geometry": { "type": "Point", "coordinates": [ -71.407721248777264, 42.141286667564906 ] } },
{ "type": "Feature", "properties": { "SCHID": "01490537", "NAME": "School for Exceptional Studies", "TOWN": "LAWRENCE", "GRADES": "PK,K,01,02,03,04,05,06,07,08,09,10,11,12", "TYPE_DESC": "Public Secondary", "DIST_NAME": "Lawrence", "DIST_CODE": "01490000", "lon": -71.163601765733873, "lat": 42.710589302473259 }, "geometry": { "type": "Point", "coordinates": [ -71.163601765733873, 42.710589302473259 ] } },
{ "type": "Feature", "properties": { "SCHID": "01720505", "NAME": "Mashpee Middle-High School", "TOWN": "MASHPEE", "GRADES": "07,08,09,10,11,12", "TYPE_DESC": "Public Secondary", "DIST_NAME": "Mashpee", "DIST_CODE": "01720000", "lon": -70.506288113827893, "lat": 41.614681581213276 }, "geometry": { "type": "Point", "coordinates": [ -70.506288113827893, 41.614681581213276 ] } },
{ "type": "Feature", "properties": { "SCHID": "04060705", "NAME": "Smith Vocational and Agricultural High School", "TOWN": "NORTHAMPTON", "GRADES": "09,10,11,12", "TYPE_DESC": "Public Secondary", "DIST_NAME": "Northampton-Smith Vocational Agricultural", "DIST_CODE": "04060000", "lon": -72.65693033994107, "lat": 42.331267607002367 }, "geometry": { "type": "Point", "coordinates": [ -72.65693033994107, 42.331267607002367 ] } },
{ "type": "Feature", "properties": { "SCHID": "02390030", "NAME": "Nathaniel Morton Elementary School", "TOWN": "PLYMOUTH", "GRADES": "K,01,02,03,04,05", "TYPE_DESC": "Public Elementary", "DIST_NAME": "Plymouth", "DIST_CODE": "02390000", "lon": -70.659935427789179, "lat": 41.954105855078843 }, "geometry": { "type": "Point", "coordinates": [ -70.659935427789179, 41.954105855078843 ] } },
{ "type": "Feature", "properties": { "SCHID": "01620025", "NAME": "Turkey Hill Elementary School", "TOWN": "LUNENBURG", "GRADES": "03,04,05", "TYPE_DESC": "Public Elementary", "DIST_NAME": "Lunenburg", "DIST_CODE": "01620000", "lon": -71.719073599012575, "lat": 42.601081907266106 }, "geometry": { "type": "Point", "coordinates": [ -71.719073599012575, 42.601081907266106 ] } },
{ "type": "Feature", "properties": { "SCHID": "02390010", "NAME": "Hedge School", "TOWN": "PLYMOUTH", "GRADES": "K,01,02,03,04,05", "TYPE_DESC": "Public Elementary", "DIST_NAME": "Plymouth", "DIST_CODE": "02390000", "lon": -70.687461340703521, "lat": 41.973876269638872 }, "geometry": { "type": "Point", "coordinates": [ -70.687461340703521, 41.973876269638872 ] } },
{ "type": "Feature", "properties": { "SCHID": "01440015", "NAME": "Winthrop School", "TOWN": "IPSWICH", "GRADES": "PK,K,01,02,03,04,05", "TYPE_DESC": "Public Elementary", "DIST_NAME": "Ipswich", "DIST_CODE": "01440000", "lon": -70.839803227715606, "lat": 42.682615816826385 }, "geometry": { "type": "Point", "coordinates": [ -70.839803227715606, 42.682615816826385 ] } },
{ "type": "Feature", "properties": { "SCHID": "07170010", "NAME": "Colrain Central School", "TOWN": "COLRAIN", "GRADES": "PK,K,01,02,03,04,05,06", "TYPE_DESC": "Public Elementary", "DIST_NAME": "Mohawk Trail", "DIST_CODE": "07170000", "lon": -72.69698389238593, "lat": 42.675864940888353 }, "geometry": { "type": "Point", "coordinates": [ -72.69698389238593, 42.675864940888353 ] } },
{ "type": "Feature", "properties": { "SCHID": "00200005", "NAME": "West Barnstable Elementary School", "TOWN": "BARNSTABLE", "GRADES": "K,01,02,03", "TYPE_DESC": "Public Elementary", "DIST_NAME": "Barnstable", "DIST_CODE": "00200000", "lon": -70.327243216787039, "lat": 41.698815538421471 }, "geometry": { "type": "Point", "coordinates": [ -70.327243216787039, 41.698815538421471 ] } },
{ "type": "Feature", "properties": { "SCHID": "01310020", "NAME": "South Elementary School", "TOWN": "HINGHAM", "GRADES": "K,01,02,03,04,05", "TYPE_DESC": "Public Elementary", "DIST_NAME": "Hingham", "DIST_CODE": "01310000", "lon": -70.884696904057023, "lat": 42.200875968524215 }, "geometry": { "type": "Point", "coordinates": [ -70.884696904057023, 42.200875968524215 ] } },
{ "type": "Feature", "properties": { "SCHID": "02010140", "NAME": "Betsey B Winslow School", "TOWN": "NEW BEDFORD", "GRADES": "K,01,02,03,04,05", "TYPE_DESC": "Public Elementary", "DIST_NAME": "New Bedford", "DIST_CODE": "02010000", "lon": -70.944529329409306, "lat": 41.625377990427779 }, "geometry": { "type": "Point", "coordinates": [ -70.944529329409306, 41.625377990427779 ] } },
{ "type": "Feature", "properties": { "SCHID": "04300305", "NAME": "Advanced Math and Science Academy Charter School", "TOWN": "MARLBOROUGH", "GRADES": "06,07,08,09,10,11,12", "TYPE_DESC": "Charter", "DIST_NAME": "Advanced Math and Science Academy Charter", "DIST_CODE": "04300000", "lon": -71.57781559007104, "lat": 42.333646712417227 }, "geometry": { "type": "Point", "coordinates": [ -71.57781559007104, 42.333646712417227 ] } },
{ "type": "Feature", "properties": { "SCHID": "00170010", "NAME": "Bryn Mawr School", "TOWN": "AUBURN", "GRADES": "K,01,02", "TYPE_DESC": "Public Elementary", "DIST_NAME": "Auburn", "DIST_CODE": "00170000", "lon": -71.845187416979599, "lat": 42.204629509349971 }, "geometry": { "type": "Point", "coordinates": [ -71.845187416979599, 42.204629509349971 ] } },
{ "type": "Feature", "properties": { "SCHID": "07750027", "NAME": "Houghton Elementary School", "TOWN": "STERLING", "GRADES": "K,01,02,03,04", "TYPE_DESC": "Public Elementary", "DIST_NAME": "Wachusett", "DIST_CODE": "07750000", "lon": -71.777939974848152, "lat": 42.413319524198599 }, "geometry": { "type": "Point", "coordinates": [ -71.777939974848152, 42.413319524198599 ] } },
{ "type": "Feature", "properties": { "SCHID": "04940205", "NAME": "Pioneer Charter School of Science", "TOWN": "EVERETT", "GRADES": "K,01,02,03,04,05,06,07,08,09,10,11,12", "TYPE_DESC": "Charter", "DIST_NAME": "Pioneer Charter School of Science", "DIST_CODE": "04940000", "lon": -71.05128533508811, "lat": 42.40812312997258 }, "geometry": { "type": "Point", "coordinates": [ -71.05128533508811, 42.40812312997258 ] } },
{ "type": "Feature", "properties": { "SCHID": "03360080", "NAME": "William Seach School", "TOWN": "WEYMOUTH", "GRADES": "K,01,02,03,04,05", "TYPE_DESC": "Public Elementary", "DIST_NAME": "Weymouth", "DIST_CODE": "03360000", "lon": -70.944124700107025, "lat": 42.196674515490272 }, "geometry": { "type": "Point", "coordinates": [ -70.944124700107025, 42.196674515490272 ] } },
{ "type": "Feature", "properties": { "SCHID": "00940305", "NAME": "Hastings Middle School", "TOWN": "FAIRHAVEN", "GRADES": "06,07,08", "TYPE_DESC": "Public Middle", "DIST_NAME": "Fairhaven", "DIST_CODE": "00940000", "lon": -70.898122968587003, "lat": 41.646907480002731 }, "geometry": { "type": "Point", "coordinates": [ -70.898122968587003, 41.646907480002731 ] } },
{ "type": "Feature", "properties": { "SCHID": "00160001", "NAME": "A. Irvin Studley Elementary School", "TOWN": "ATTLEBORO", "GRADES": "K,01,02,03,04", "TYPE_DESC": "Public Elementary", "DIST_NAME": "Attleboro", "DIST_CODE": "00160000", "lon": -71.307894473800658, "lat": 41.93756698406473 }, "geometry": { "type": "Point", "coordinates": [ -71.307894473800658, 41.93756698406473 ] } },
{ "type": "Feature", "properties": { "SCHID": "04850485", "NAME": "Salem Academy Charter School", "TOWN": "SALEM", "GRADES": "06,07,08,09,10,11,12", "TYPE_DESC": "Charter", "DIST_NAME": "Salem Academy Charter", "DIST_CODE": "04850000", "lon": -70.886205659630278, "lat": 42.515802251200064 }, "geometry": { "type": "Point", "coordinates": [ -70.886205659630278, 42.515802251200064 ] } },
{ "type": "Feature", "properties": { "SCHID": "02710015", "NAME": "Calvin Coolidge School", "TOWN": "SHREWSBURY", "GRADES": "K,01,02,03,04", "TYPE_DESC": "Public Elementary", "DIST_NAME": "Shrewsbury", "DIST_CODE": "02710000", "lon": -71.748657634251131, "lat": 42.265312698212504 }, "geometry": { "type": "Point", "coordinates": [ -71.748657634251131, 42.265312698212504 ] } },
{ "type": "Feature", "properties": { "SCHID": "00030025", "NAME": "Acushnet Elementary School", "TOWN": "ACUSHNET", "GRADES": "PK,K,01,02,03,04", "TYPE_DESC": "Public Elementary", "DIST_NAME": "Acushnet", "DIST_CODE": "00030000", "lon": -70.905403940685218, "lat": 41.724266718062658 }, "geometry": { "type": "Point", "coordinates": [ -70.905403940685218, 41.724266718062658 ] } },
{ "type": "Feature", "properties": { "SCHID": "03420505", "NAME": "Wilmington High School", "TOWN": "WILMINGTON", "GRADES": "09,10,11,12", "TYPE_DESC": "Public Secondary", "DIST_NAME": "Wilmington", "DIST_CODE": "03420000", "lon": -71.164238284124863, "lat": 42.555803795718127 }, "geometry": { "type": "Point", "coordinates": [ -71.164238284124863, 42.555803795718127 ] } },
{ "type": "Feature", "properties": { "SCHID": "06180505", "NAME": "Monument Mountain Regional High School", "TOWN": "GREAT BARRINGTON", "GRADES": "09,10,11,12", "TYPE_DESC": "Public Secondary", "DIST_NAME": "Berkshire Hills", "DIST_CODE": "06180000", "lon": -73.328514103757669, "lat": 42.249151753504641 }, "geometry": { "type": "Point", "coordinates": [ -73.328514103757669, 42.249151753504641 ] } },
{ "type": "Feature", "properties": { "SCHID": "02360090", "NAME": "Stearns School", "TOWN": "PITTSFIELD", "GRADES": "PK,K,01,02,03,04,05", "TYPE_DESC": "Public Elementary", "DIST_NAME": "Pittsfield", "DIST_CODE": "02360000", "lon": -73.299719394451856, "lat": 42.437019487441013 }, "geometry": { "type": "Point", "coordinates": [ -73.299719394451856, 42.437019487441013 ] } },
{ "type": "Feature", "properties": { "SCHID": "00030305", "NAME": "Albert F Ford Middle School", "TOWN": "ACUSHNET", "GRADES": "05,06,07,08", "TYPE_DESC": "Public Middle", "DIST_NAME": "Acushnet", "DIST_CODE": "00030000", "lon": -70.905403940685218, "lat": 41.724266718062658 }, "geometry": { "type": "Point", "coordinates": [ -70.905403940685218, 41.724266718062658 ] } },
{ "type": "Feature", "properties": { "SCHID": "00080009", "NAME": "Crocker Farm Elementary School", "TOWN": "AMHERST", "GRADES": "PK,K,01,02,03,04,05,06", "TYPE_DESC": "Public Elementary", "DIST_NAME": "Amherst", "DIST_CODE": "00080000", "lon": -72.517508421516752, "lat": 42.347295312467381 }, "geometry": { "type": "Point", "coordinates": [ -72.517508421516752, 42.347295312467381 ] } },
{ "type": "Feature", "properties": { "SCHID": "04360305", "NAME": "Community Charter School of Cambridge", "TOWN": "CAMBRIDGE", "GRADES": "06,07,08,09,10,11,12", "TYPE_DESC": "Charter", "DIST_NAME": "Community Charter School of Cambridge", "DIST_CODE": "04360000", "lon": -71.085157359102141, "lat": 42.367698238709046 }, "geometry": { "type": "Point", "coordinates": [ -71.085157359102141, 42.367698238709046 ] } },
{ "type": "Feature", "properties": { "SCHID": "01600015", "NAME": "Greenhalge School", "TOWN": "LOWELL", "GRADES": "PK,K,01,02,03,04", "TYPE_DESC": "Public Elementary", "DIST_NAME": "Lowell", "DIST_CODE": "01600000", "lon": -71.309184515451236, "lat": 42.657387872015484 }, "geometry": { "type": "Point", "coordinates": [ -71.309184515451236, 42.657387872015484 ] } },
{ "type": "Feature", "properties": { "SCHID": "02840025", "NAME": "Robin Hood School", "TOWN": "STONEHAM", "GRADES": "K,01,02,03,04", "TYPE_DESC": "Public Elementary", "DIST_NAME": "Stoneham", "DIST_CODE": "02840000", "lon": -71.108013371710243, "lat": 42.493447650553897 }, "geometry": { "type": "Point", "coordinates": [ -71.108013371710243, 42.493447650553897 ] } },
{ "type": "Feature", "properties": { "SCHID": "02580505", "NAME": "Salem High School", "TOWN": "SALEM", "GRADES": "09,10,11,12", "TYPE_DESC": "Public Secondary", "DIST_NAME": "Salem", "DIST_CODE": "02580000", "lon": -70.911227358387421, "lat": 42.506530422713915 }, "geometry": { "type": "Point", "coordinates": [ -70.911227358387421, 42.506530422713915 ] } },
{ "type": "Feature", "properties": { "SCHID": "03230003", "NAME": "Rose L Macdonald School", "TOWN": "WEST BRIDGEWATER", "GRADES": "01,02,03", "TYPE_DESC": "Public Elementary", "DIST_NAME": "West Bridgewater", "DIST_CODE": "03230000", "lon": -71.028505976561604, "lat": 42.023626357044172 }, "geometry": { "type": "Point", "coordinates": [ -71.028505976561604, 42.023626357044172 ] } },
{ "type": "Feature", "properties": { "SCHID": "07750305", "NAME": "Mountview Middle School", "TOWN": "HOLDEN", "GRADES": "06,07,08", "TYPE_DESC": "Public Middle", "DIST_NAME": "Wachusett", "DIST_CODE": "07750000", "lon": -71.824111847430103, "lat": 42.334474623894955 }, "geometry": { "type": "Point", "coordinates": [ -71.824111847430103, 42.334474623894955 ] } },
{ "type": "Feature", "properties": { "SCHID": "00570025", "NAME": "William A Berkowitz Elementary School", "TOWN": "CHELSEA", "GRADES": "01,02,03,04", "TYPE_DESC": "Public Elementary", "DIST_NAME": "Chelsea", "DIST_CODE": "00570000", "lon": -71.0190597817856, "lat": 42.399379786734208 }, "geometry": { "type": "Point", "coordinates": [ -71.0190597817856, 42.399379786734208 ] } },
{ "type": "Feature", "properties": { "SCHID": "00570030", "NAME": "Edgar A Hooks Elementary School", "TOWN": "CHELSEA", "GRADES": "01,02,03,04", "TYPE_DESC": "Public Elementary", "DIST_NAME": "Chelsea", "DIST_CODE": "00570000", "lon": -71.0190597817856, "lat": 42.399379786734208 }, "geometry": { "type": "Point", "coordinates": [ -71.0190597817856, 42.399379786734208 ] } },
{ "type": "Feature", "properties": { "SCHID": "01810030", "NAME": "Marsh Grammar School", "TOWN": "METHUEN", "GRADES": "K,01,02,03,04,05,06,07,08", "TYPE_DESC": "Public Elementary", "DIST_NAME": "Methuen", "DIST_CODE": "01810000", "lon": -71.232533383589569, "lat": 42.729080197657545 }, "geometry": { "type": "Point", "coordinates": [ -71.232533383589569, 42.729080197657545 ] } },
{ "type": "Feature", "properties": { "SCHID": "07500006", "NAME": "Bernardston Elementary School", "TOWN": "BERNARDSTON", "GRADES": "PK,K,01,02,03,04,05,06", "TYPE_DESC": "Public Elementary", "DIST_NAME": "Pioneer Valley", "DIST_CODE": "07500000", "lon": -72.560893215424258, "lat": 42.665878338924472 }, "geometry": { "type": "Point", "coordinates": [ -72.560893215424258, 42.665878338924472 ] } },
{ "type": "Feature", "properties": { "SCHID": "03310030", "NAME": "Westport Elementary School", "TOWN": "WESTPORT", "GRADES": "01,02,03,04", "TYPE_DESC": "Public Elementary", "DIST_NAME": "Westport", "DIST_CODE": "03310000", "lon": -71.065152048370777, "lat": 41.625010491160921 }, "geometry": { "type": "Point", "coordinates": [ -71.065152048370777, 41.625010491160921 ] } },
{ "type": "Feature", "properties": { "SCHID": "00240018", "NAME": "Swift River Elementary School", "TOWN": "BELCHERTOWN", "GRADES": "01,02,03", "TYPE_DESC": "Public Elementary", "DIST_NAME": "Belchertown", "DIST_CODE": "00240000", "lon": -72.410387413264743, "lat": 42.268362815466347 }, "geometry": { "type": "Point", "coordinates": [ -72.410387413264743, 42.268362815466347 ] } },