{
  "type": "FeatureCollection",
  "name": "ranges",
  "features": [
    { "type":"Feature","geometry":{"type":"Point","coordinates":[-83.50,35.62]},"properties":{"name":"Great Smoky Mountains","region":"blue_ridge","note":"The highest, wettest, and most biodiverse range in the eastern U.S. — ancient, rounded summits cloaked in cloud forest."}},
    { "type":"Feature","geometry":{"type":"Point","coordinates":[-82.30,35.77]},"properties":{"name":"Black Mountains","region":"blue_ridge","note":"A short, steep Blue Ridge cross-range holding Mount Mitchell, the highest summit in eastern North America."}},
    { "type":"Feature","geometry":{"type":"Point","coordinates":[-79.30,37.85]},"properties":{"name":"Blue Ridge","region":"blue_ridge","note":"The long eastern wall of the Appalachians, running from Georgia to Pennsylvania — the Blue Ridge Parkway traces its crest."}},
    { "type":"Feature","geometry":{"type":"Point","coordinates":[-78.40,38.55]},"properties":{"name":"Shenandoah","region":"blue_ridge","note":"The Virginia Blue Ridge above the Shenandoah Valley, protected as Shenandoah National Park."}},
    { "type":"Feature","geometry":{"type":"Point","coordinates":[-79.65,38.85]},"properties":{"name":"Allegheny Mountains","region":"plateau","note":"The high eastern edge of the Appalachian Plateau, holding Spruce Knob and the headwaters of the Potomac."}},
    { "type":"Feature","geometry":{"type":"Point","coordinates":[-85.10,35.85]},"properties":{"name":"Cumberland Plateau","region":"plateau","note":"The deeply dissected southern Appalachian Plateau of Tennessee and Kentucky — flat-topped, gorge-cut tableland."}},
    { "type":"Feature","geometry":{"type":"Point","coordinates":[-74.33,42.10]},"properties":{"name":"Catskills","region":"plateau","note":"A dissected plateau of flat-lying Devonian rock carved into peaks — not folded mountains at all."}},
    { "type":"Feature","geometry":{"type":"Point","coordinates":[-75.40,41.13]},"properties":{"name":"Poconos","region":"plateau","note":"A glaciated northeastern-Pennsylvania escarpment of the Appalachian Plateau."}},
    { "type":"Feature","geometry":{"type":"Point","coordinates":[-74.00,44.10]},"properties":{"name":"Adirondacks","region":"adirondack","note":"A billion-year-old dome of Grenville basement — geologically a southern outlier of the Canadian Shield, not the Appalachians proper."}},
    { "type":"Feature","geometry":{"type":"Point","coordinates":[-72.85,44.00]},"properties":{"name":"Green Mountains","region":"new_england","note":"Vermont's spine — metamorphosed rock stacked during the Taconic and Acadian orogenies."}},
    { "type":"Feature","geometry":{"type":"Point","coordinates":[-71.35,44.20]},"properties":{"name":"White Mountains","region":"new_england","note":"New Hampshire's high country — Acadian granite holding the tallest summits in the Northeast."}},
    { "type":"Feature","geometry":{"type":"Point","coordinates":[-73.20,42.45]},"properties":{"name":"Berkshires & Taconics","region":"new_england","note":"Western Massachusetts' marble valleys and schist hills — a southern continuation of the Green Mountains."}},
    { "type":"Feature","geometry":{"type":"Point","coordinates":[-69.90,45.45]},"properties":{"name":"Longfellow Mountains","region":"new_england","note":"Maine's high country, culminating at Katahdin — the northern end of the Appalachian Trail."}},
    { "type":"Feature","geometry":{"type":"Point","coordinates":[-66.10,48.95]},"properties":{"name":"Chic-Choc Mountains","region":"gaspe_maritime","note":"The high spine of Quebec's Gaspé Peninsula — arctic-alpine tundra on the roof of the Canadian Appalachians."}},
    { "type":"Feature","geometry":{"type":"Point","coordinates":[-68.60,48.05]},"properties":{"name":"Notre Dame Mountains","region":"gaspe_maritime","note":"The Quebec Appalachians paralleling the south shore of the St. Lawrence — a direct continuation of the Green Mountains across the border."}},
    { "type":"Feature","geometry":{"type":"Point","coordinates":[-66.88,47.40]},"properties":{"name":"Mount Carleton Highlands","region":"gaspe_maritime","note":"New Brunswick's forested interior highlands, crowned by Mount Carleton, the highest point in the Maritimes."}},
    { "type":"Feature","geometry":{"type":"Point","coordinates":[-60.70,46.80]},"properties":{"name":"Cape Breton Highlands","region":"gaspe_maritime","note":"A windswept plateau at the northern tip of Nova Scotia, dropping in sea cliffs along the Cabot Trail."}},
    { "type":"Feature","geometry":{"type":"Point","coordinates":[-57.60,49.55]},"properties":{"name":"Long Range Mountains","region":"newfoundland","note":"The northern terminus of the Appalachians — ancient basement uplifted along Newfoundland's west coast, with the fjords and mantle rock of Gros Morne."}}
  ]
}
